"FDT_STA_ID","STA_LV3_CODE","STA_LV1_CODE","STA_REC_CODE","Deq_Region","STA_DESC","FDT_SSC_CODE","FDT_SPG_CODE","STA_LV2_CODE","Latitude","Longitude","Majorbasincode","Majorbasinname","Basin","Subbasin","Huc6_Huc_8","Huc6_Huc_8_Name","Huc6_Name","Huc6_Huc_12","Huc6_Huc_12_Name","Huc6_Vahu5","Huc6_Vahu6","STA_CBP_NAME"
"2-ANG001.27","SSTUDY","STREAM","PRO","Blue Ridge","ANGOLA CREEK AT RT. 673",2,"RB","AMBNT",37.37472222,-78.26166667,2,"Mid Atlantic","James River Basin","APPOMATTOX",2080207,"Appomattox","Angola Creek-Appomattox River",20802070402,"Appomattox River-Angola Creek","JA-D","JA16",NA
"2-APP085.85","ATRND","STREAM","SCRO","Blue Ridge","RT 621 BRIDGE - CUMBERLAND/AMELIA LINE",2,"TR","AMBNT",37.45222222,-78.14944444,2,"Mid Atlantic","James River Basin","APPOMATTOX",2080207,"Appomattox","Little Guinea Creek-Appomattox River",20802070405,"Appomattox River-Little Guinea Creek","JA-D","JA19",NA
"2-APP110.93","ATRND","STREAM","SCRO","Blue Ridge","RT.45 BRIDGE AT FARMVILLE",45128,"CB","AMBNT",37.30725,-78.38925,2,"Mid Atlantic","James River Basin","APPOMATTOX",2080207,"Appomattox","Bad Luck Branch-Appomattox River",20802070206,"Appomattox River-Bad Luck Branch","JA-B","JA09",NA
"2-APP118.04","ATRND","STREAM","SCRO","Blue Ridge","RT.15 BRIDGE W OF FARMVILLE (PRINCE EDWA",2,"TR","AMBNT",37.34033333,-78.47155833,2,"Mid Atlantic","James River Basin","APPOMATTOX",2080207,"Appomattox","Ducker Creek-Appomattox River",20802070205,"Appomattox River-Ducker Creek","JA-B","JA05",NA
"2-APP143.57","SSTUDY","STREAM","SCRO","Blue Ridge","STA #1 RT. 618 BRIDGE APPOMATTOX COUNTY",2,"RB","AMBNT",37.33916667,-78.65944444,2,"Mid Atlantic","James River Basin","APPOMATTOX",2080207,"Appomattox","Suanee Creek-Appomattox River",20802070202,"Appomattox River-Suanee Creek","JA-B","JA02",NA
"2-APP152.57","AWTSHD","STREAM","SCRO","Blue Ridge","Appomattox R @ rt 616",2,"AW","AMBNT",37.36722222,-78.74861111,2,"Mid Atlantic","James River Basin","APPOMATTOX",2080207,"Appomattox","Wolf Creek-Appomattox River",20802070201,"Appomattox River-Wolf Creek","JA-B","JA01",NA
"2-AUS001.12","SSTUDY","STREAM","SCRO","Blue Ridge","Austin Creek @ Rt. 607",2,"RB","AMBNT",37.54222222,-78.65777778,2,"Mid Atlantic","James River Basin","MIDDLE JAMES-BUFFALO",2080203,"Middle James Buffalo","Meadow Creek-North River",20802031302,"North River-Meadow Creek","JM-M","JM52",NA
"2-BAR000.60","SSTUDY","STREAM","WCRO","Blue Ridge","RT. 614 BRIDGE",2,"TM","AMBNT",37.53583333,-80.045,2,"Mid Atlantic","James River Basin","UPPER JAMES",2080201,"Upper James","Barbours Creek",20802011202,"Barbours Creek","JU-L","JU47",NA
"2-BCR007.68","APROB","STREAM","SCRO","Blue Ridge","Beaver Ck just downstream of Hwy 501",2,"FP","AMBNT",37.32308333,-79.10047222,2,"Mid Atlantic","James River Basin","MIDDLE JAMES-BUFFALO",2080203,"Middle James Buffalo","Beaver Creek",20802030306,"Beaver Creek","JM-C","JM12",NA
"2-BFC001.11","AWTSHD","STREAM","SCRO","Blue Ridge","Buffalo Cr @ rt 626",2,"AW","AMBNT",37.51222222,-78.34472222,2,"Mid Atlantic","James River Basin","MIDDLE JAMES-WILLIS",2080205,"Middle James Willis","Buffalo Creek-Willis River",20802050204,"Willis River-Buffalo Creek","JM-Q","JM66",NA
"2-BFL002.00","AWTSHD","STREAM","SCRO","Blue Ridge","BUS. RT. 460 BRIDGE-PRINCE EDWARD CO/FAR",2,"RB","AMBNT",37.30361111,-78.40666667,2,"Mid Atlantic","James River Basin","APPOMATTOX",2080207,"Appomattox","Locket Creek-Buffalo Creek",20802070103,"Buffalo Creek-Locket Creek","JA-A","JA08",NA
"2-BFL009.69","BIOMON","STREAM","SCRO","Blue Ridge","Buffalo Cr @ rt648",2,"RB","AMBNT",37.27055555,-78.48083333,2,"Mid Atlantic","James River Basin","APPOMATTOX",2080207,"Appomattox","Locket Creek-Buffalo Creek",20802070103,"Buffalo Creek-Locket Creek","JA-A","JA08",NA
"2-BFL011.03","ATRND","STREAM","SCRO","Blue Ridge","Rt. 658 Bridge",2,"TR","AMBNT",37.2575,-78.48666667,2,"Mid Atlantic","James River Basin","APPOMATTOX",2080207,"Appomattox","Locket Creek-Buffalo Creek",20802070103,"Buffalo Creek-Locket Creek","JA-A","JA08","2039000"
"2-BFL016.60","AWTSHD","STREAM","SCRO","Blue Ridge","Buffalo Creek @ rt 666",2,"AW","AMBNT",37.20611111,-78.53694444,2,"Mid Atlantic","James River Basin","APPOMATTOX",2080207,"Appomattox","Little Buffalo Creek-Buffalo Creek",20802070102,"Buffalo Creek-Little Buffalo Creek","JA-A","JA07",NA
"2-BFL016.79","APROB","STREAM","SCRO","Blue Ridge","Buffalo Ck. above Rt.686",2,"FP","AMBNT",37.20416667,-78.53916667,2,"Mid Atlantic","James River Basin","APPOMATTOX",2080207,"Appomattox","Little Buffalo Creek-Buffalo Creek",20802070102,"Buffalo Creek-Little Buffalo Creek","JA-A","JA07","VAEQ99-004"
"2-BGC000.58","AWTSHD","STREAM","SCRO","Blue Ridge","BEAR GARDEN CREEK, RT 670 BRIDGE",2,"RB","AMBNT",37.7025,-78.29361111,2,"Mid Atlantic","James River Basin","MIDDLE JAMES-BUFFALO",2080203,"Middle James Buffalo","Bear Garden Creek-James River",20802031502,"James River-Bear Garden Creek","JM-O","JM58",NA
"2-BGU005.67","AWTSHD","STREAM","SCRO","Blue Ridge","Big Guinea Cr @ rt 639, Putney Rd",2,"AW","AMBNT",37.42166667,-78.27027778,2,"Mid Atlantic","James River Basin","APPOMATTOX",2080207,"Appomattox","Big Guinea Creek",20802070404,"Big Guinea Creek","JA-D","JA18",NA
"2-BIO000.45","AWTSHD","STREAM","SCRO","Blue Ridge","Bigger Creek @ rt 615",2,"AW","AMBNT",37.60972222,-78.2075,2,"Mid Atlantic","James River Basin","MIDDLE JAMES-WILLIS",2080205,"Middle James Willis","Trice Lake-Willis River",20802050303,"Willis River-Trice Lake","JM-R","JM70",NA
"2-BKL000.15","AWTSHD","STREAM","WCRO","Blue Ridge","rT. 743 bRIDGE NEAR gALA",2,"AW","AMBNT",37.68949167,-79.81748333,2,"Mid Atlantic","James River Basin","UPPER JAMES",2080201,"Upper James","Black Lick-James River",20802010904,"James River-Black Lick","JU-I","JU40",NA
"2-BKW000.40","SSTUDY","STREAM","SCRO","Blue Ridge","Blackwater Cr @ Rivermont Ave",2,"RB","AMBNT",37.41944444,-79.14611111,2,"Mid Atlantic","James River Basin","MIDDLE JAMES-BUFFALO",2080203,"Middle James Buffalo","Blackwater Creek",20802030304,"Blackwater Creek","JM-C","JM10",NA
"2-BKW004.87","SSTUDY","STREAM","SCRO","Blue Ridge","Blackwater cr before Ivy Cr conf",2,"RB","AMBNT",37.4175,-79.18444444,2,"Mid Atlantic","James River Basin","MIDDLE JAMES-BUFFALO",2080203,"Middle James Buffalo","Blackwater Creek",20802030304,"Blackwater Creek","JM-C","JM10",NA
"2-BLO001.85","AWTSHD","STREAM","PRO","Blue Ridge","BLAND CREEK, RT. 610 BRIDGE",7114,"TM","AMBNT",37.19361111,-77.95166667,2,"Mid Atlantic","James River Basin","APPOMATTOX",2080207,"Appomattox","Cellar Creek",20802070702,"Cellar Creek","JA-G","JA30",NA
"2-BMT000.07","SSTUDY","STREAM","SCRO","Blue Ridge","Brown Mt Cr @ rt 636",2,"RB","AMBNT",37.69472222,-79.27638889,2,"Mid Atlantic","James River Basin","MIDDLE JAMES-BUFFALO",2080203,"Middle James Buffalo","Lynchburg Reservoir-Pedlar River",20802030201,"Pedlar River-Lynchburg Reservoir","JM-B","JM04",NA
"2-BOW001.99","SSTUDY","STREAM","SCRO","Blue Ridge","Bowler Creek @ rt 620",2,"RB","AMBNT",37.29083333,-78.69388889,2,"Mid Atlantic","James River Basin","APPOMATTOX",2080207,"Appomattox","Suanee Creek-Appomattox River",20802070202,"Appomattox River-Suanee Creek","JA-B","JA02",NA
"2-BRI001.00","AWTSHD","STREAM","SCRO","Blue Ridge","BRIERY CREEK, BUS  RT. 460 BRIDGE",2,"TM","AMBNT",37.28055555,-78.36388889,2,"Mid Atlantic","James River Basin","APPOMATTOX",2080207,"Appomattox","Briery Creek",20802070301,"Briery Creek","JA-C","JA10",NA
"2-BRI010.78","AWTSHD","RESERV","SCRO","Blue Ridge","BRIERY CREEK LAKE STA.#1 AT DAM PRINCE E",2,"RL","AMBNT",37.20166667,-78.44527778,2,"Mid Atlantic","James River Basin","APPOMATTOX",2080207,"Appomattox","Briery Creek",20802070301,"Briery Creek","JA-C","JA10",NA
"2-BRI013.12","AWTSHD","RESERV","SCRO","Blue Ridge","BRIERY CREEK LAKE UPPER END OF LAKE PRIN",2,"RL","AMBNT",37.17805556,-78.46083333,2,"Mid Atlantic","James River Basin","APPOMATTOX",2080207,"Appomattox","Briery Creek",20802070301,"Briery Creek","JA-C","JA10",NA
"2-BRK001.00","AWTSHD","STREAM","SCRO","Blue Ridge","Bonbrook Cr @ Rt 624",2,"AW","AMBNT",37.58961111,-78.24497222,2,"Mid Atlantic","James River Basin","MIDDLE JAMES-WILLIS",2080205,"Middle James Willis","Bonbrook Creek-Willis River",20802050301,"Willis River-Bonbrook Creek","JM-R","JM68",NA
"2-BSB000.20","BIOMON","STREAM","WCRO","Blue Ridge","Dnstr of Green Pasture Rd",2,"RB","AMBNT",37.83333333,-79.66666667,2,"Mid Atlantic","James River Basin","UPPER JAMES",2080201,"Upper James","Simpson Creek-Cowpasture River",20802010803,"Cowpasture River-Simpson Creek","JU-H","JU36",NA
"2-BSR002.82","AWTSHD","STREAM","SCRO","Blue Ridge","BUSH RIVER, RT. 460 BRIDGE",2,"AW","AMBNT",37.27833333,-78.35138889,2,"Mid Atlantic","James River Basin","APPOMATTOX",2080207,"Appomattox","Millers Creek-Bush River",20802070304,"Bush River-Millers Creek","JA-C","JA13",NA
"2-BSR012.33","APROB","STREAM","SCRO","Blue Ridge","Bush river northeast of Rte 715",2,"FP","AMBNT",37.1725,-78.39427778,2,"Mid Atlantic","James River Basin","APPOMATTOX",2080207,"Appomattox","Evans Creek-Bush River",20802070302,"Bush River-Evans Creek","JA-C","JA11",NA
"2-BSR017.69","SSTUDY","STREAM","SCRO","Blue Ridge","Bush R @ Rt 634",2,"PA","AMBNT",37.1125,-78.43055556,2,"Mid Atlantic","James River Basin","APPOMATTOX",2080207,"Appomattox","Evans Creek-Bush River",20802070302,"Bush River-Evans Creek","JA-C","JA11",NA
"2-BTC000.16","AWTSHD","STREAM","SCRO","Blue Ridge","OFF ROUTE 26, NEAR CONFLUENCE WITH JAMES",2,"AW","AMBNT",37.53388889,-78.82916667,2,"Mid Atlantic","James River Basin","MIDDLE JAMES-BUFFALO",2080203,"Middle James Buffalo","Bent Creek",20802030406,"Bent Creek","JM-D","JM18",NA
"2-BUF011.95","TMDL","STREAM","SCRO","Blue Ridge","Rt 739 Bridge Boxwood Farm Road",10120,"TM","AMBNT",37.596,-79.005,2,"Mid Atlantic","James River Basin","MIDDLE JAMES-BUFFALO",2080203,"Middle James Buffalo","Stonewall Creek-Buffalo River",20802030602,"Buffalo River-Stonewall Creek","JM-F","JM29",NA
"2-BUF026.43","BIOMON","STREAM","SCRO","Blue Ridge","Buffalo River @ Rt 60",10120,"TM","AMBNT",37.65833333,-79.145,2,"Mid Atlantic","James River Basin","MIDDLE JAMES-BUFFALO",2080203,"Middle James Buffalo","North Fork Buffalo River-Buffalo River",20802030601,"Buffalo River-North Fork Buffalo River","JM-F","JM28",NA
"2-BUF026.58","TMDL","STREAM","SCRO","Blue Ridge","At Route 610",10120,"TM","AMBNT",37.656,-79.15,2,"Mid Atlantic","James River Basin","MIDDLE JAMES-BUFFALO",2080203,"Middle James Buffalo","North Fork Buffalo River-Buffalo River",20802030601,"Buffalo River-North Fork Buffalo River","JM-F","JM28",NA
"2-BUF030.41","TMDL","STREAM","SCRO","Blue Ridge","Rt. 60 Near Forks of the Buffalo",10120,"TM","AMBNT",37.679,-79.222,2,"Mid Atlantic","James River Basin","MIDDLE JAMES-BUFFALO",2080203,"Middle James Buffalo","North Fork Buffalo River-Buffalo River",20802030601,"Buffalo River-North Fork Buffalo River","JM-F","JM28",NA
"2-BUN000.04","SSTUDY","STREAM","SCRO","Blue Ridge","Burton Cr-off rhonda rd near conf-tmahwk",2,"RB","AMBNT",37.38527778,-79.21111111,2,"Mid Atlantic","James River Basin","MIDDLE JAMES-BUFFALO",2080203,"Middle James Buffalo","Blackwater Creek",20802030304,"Blackwater Creek","JM-C","JM10",NA
"2-BYN001.90","APROB","STREAM","SCRO","Blue Ridge","Bryant Creek S of Shumaker Rd Off Hwy 60",2,"FP","AMBNT",37.5415,-78.53069444,2,"Mid Atlantic","James River Basin","MIDDLE JAMES-BUFFALO",2080203,"Middle James Buffalo","Horsepen Creek-Slate River",20802031303,"Slate River-Horsepen Creek","JM-M","JM53",NA
"2-CAT000.34","AWTSHD","STREAM","WCRO","Blue Ridge","BRIDGE NEAR SALISBURY FURNACE-BOTETOURT",2,"QA","AMBNT",37.60194445,-79.78666667,2,"Mid Atlantic","James River Basin","UPPER JAMES",2080201,"Upper James","Town Branch-Catawba Creek",20802011302,"Catawba Creek-Town Branch","JU-M","JU53",NA
"2-CAT023.83","AWTSHD","STREAM","WCRO","Blue Ridge","GAGE NEAR CATAWBA, ROUTE 779 BRIDGE",2,"AW","AMBNT",37.46666667,-80.00555556,2,"Mid Atlantic","James River Basin","UPPER JAMES",2080201,"Upper James","Little Catawba Creek-Catawba Creek",20802011301,"Catawba Creek-Little Catawba Creek","JU-M","JU52",NA
"2-CAT025.14","BIOMON","STREAM","WCRO","Blue Ridge","Andy Lane Trail crossing off Rt. 729",2,"RB","AMBNT",37.453425,-80.00801944,2,"Mid Atlantic","James River Basin","UPPER JAMES",2080201,"Upper James","Little Catawba Creek-Catawba Creek",20802011301,"Catawba Creek-Little Catawba Creek","JU-M","JU52",NA
"2-CAT026.29","APROB","STREAM","WCRO","Blue Ridge","Downstr of Hogan Hollow",NA,"FP","AMBNT",37.43588889,-80.01784167,2,"Mid Atlantic","James River Basin","UPPER JAMES",2080201,"Upper James","Little Catawba Creek-Catawba Creek",20802011301,"Catawba Creek-Little Catawba Creek","JU-M","JU52","VA-1028"
"2-CAT027.64","SSTUDY","STREAM","WCRO","Blue Ridge","Hogan Hollow Rd. (Rt. 737)",2,"TM","AMBNT",37.42594444,-80.02176944,2,"Mid Atlantic","James River Basin","UPPER JAMES",2080201,"Upper James","Little Catawba Creek-Catawba Creek",20802011301,"Catawba Creek-Little Catawba Creek","JU-M","JU52",NA
"2-CAT034.61","SSTUDY","STREAM","WCRO","Blue Ridge","Catawba Sust. Center",2,"RB","AMBNT",37.38333056,-80.09999722,2,"Mid Atlantic","James River Basin","UPPER JAMES",2080201,"Upper James","Little Catawba Creek-Catawba Creek",20802011301,"Catawba Creek-Little Catawba Creek","JU-M","JU52",NA
"2-CBH000.29","AWTSHD","STREAM","SCRO","Blue Ridge","Cabin Branch @ Rt. 602",2,"RB","AMBNT",37.3499,-78.6058,2,"Mid Atlantic","James River Basin","APPOMATTOX",2080207,"Appomattox","Vaughans Creek",20802070204,"Vaughans Creek","JA-B","JA04",NA
"2-CLR001.23","TMDL","STREAM","PRO","Blue Ridge","Cellar Cr off Paulett Lane",7114,"TM","AMBNT",37.23083333,-77.95,2,"Mid Atlantic","James River Basin","APPOMATTOX",2080207,"Appomattox","Cellar Creek",20802070702,"Cellar Creek","JA-G","JA30",NA
"2-CLR007.04","TMDL","STREAM","PRO","Blue Ridge","Cellar Creek at Rt. 607",7114,"TM","AMBNT",37.1675,-77.99055556,2,"Mid Atlantic","James River Basin","APPOMATTOX",2080207,"Appomattox","Cellar Creek",20802070702,"Cellar Creek","JA-G","JA30",NA
"2-CNE000.96","SSTUDY","STREAM","SCRO","Blue Ridge","Crane Creek @ rt 600",2,"RB","AMBNT",37.32027778,-78.6475,2,"Mid Atlantic","James River Basin","APPOMATTOX",2080207,"Appomattox","Vaughans Creek",20802070204,"Vaughans Creek","JA-B","JA04",NA
"2-CRG001.20","AWTSHD","STREAM","WCRO","Blue Ridge","ROUTE 818, NEAR BESSEMER - BOTETOURT COU",2,"TR","AMBNT",37.64888889,-79.83138889,2,"Mid Atlantic","James River Basin","UPPER JAMES",2080201,"Upper James","Roaring Run-Craig Creek",20802011205,"Craig Creek-Roaring Run","JU-L","JU50",NA
"2-CRG014.92","APROB","STREAM","WCRO","Blue Ridge","Off Rt. 615 near RR trestle",NA,"FP","AMBNT",37.6438,-79.9216,2,"Mid Atlantic","James River Basin","UPPER JAMES",2080201,"Upper James","Mill Creek-Craig Creek",20802011203,"Craig Creek-Mill Creek","JU-L","JU48","VARS11-194"
"2-CRG015.50","APROB","STREAM","WCRO","Blue Ridge","Off Rt. 615, upstr of Hipes",2,"FP","AMBNT",37.6487,-79.92969444,2,"Mid Atlantic","James River Basin","UPPER JAMES",2080201,"Upper James","Mill Creek-Craig Creek",20802011203,"Craig Creek-Mill Creek","JU-L","JU48","VARS11-275"
"2-CRG016.90","AWTSHD","STREAM","WCRO","Blue Ridge","Rt. 817 Pull off from Rt. 615",2,"PA","AMBNT",37.64663889,-79.94880556,2,"Mid Atlantic","James River Basin","UPPER JAMES",2080201,"Upper James","Mill Creek-Craig Creek",20802011203,"Craig Creek-Mill Creek","JU-L","JU48",NA
"2-CRG026.85","APROB","STREAM","WCRO","Blue Ridge","Oriskany canoe launch",2,"PA","AMBNT",37.61763889,-79.9895,2,"Mid Atlantic","James River Basin","UPPER JAMES",2080201,"Upper James","Mill Creek-Craig Creek",20802011203,"Craig Creek-Mill Creek","JU-L","JU48",NA
"2-CRG028.87","APROB","STREAM","WCRO","Blue Ridge","Upstr. of Slippery Ford",NA,"FP","AMBNT",37.59467222,-79.99886667,2,"Mid Atlantic","James River Basin","UPPER JAMES",2080201,"Upper James","Mill Creek-Craig Creek",20802011203,"Craig Creek-Mill Creek","JU-L","JU48","VA-1304"
"2-CRG042.34","AWTSHD","STREAM","WCRO","Blue Ridge","RT. 614 BRIDGE",2,"AW","AMBNT",37.53583333,-80.03444445,2,"Mid Atlantic","James River Basin","UPPER JAMES",2080201,"Upper James","Mill Creek-Craig Creek",20802011203,"Craig Creek-Mill Creek","JU-L","JU48",NA
"2-CRG047.95","APROB","STREAM","WCRO","Blue Ridge","Off Rt. 616 dnstr of New Castle",2,"FP","AMBNT",37.5112,-80.0876,2,"Mid Atlantic","James River Basin","UPPER JAMES",2080201,"Upper James","Rolands Run Branch-Craig Creek",20802011201,"Craig Creek-Rolands Run Branch","JU-L","JU46","VARS11-232"
"2-CRG048.53","AWTSHD","STREAM","WCRO","Blue Ridge","Rt 616 - BELOW NEW CASTLE STP - CRAIG CO",2,"TM","AMBNT",37.50191667,-80.10447222,2,"Mid Atlantic","James River Basin","UPPER JAMES",2080201,"Upper James","Broad Run-Craig Creek",20802011003,"Craig Creek-Broad Run","JU-J","JU43",NA
"2-CRG062.29","AWTSHD","STREAM","WCRO","Blue Ridge","RT. 621 BRIDGE",2,"AW","AMBNT",37.40777778,-80.1775,2,"Mid Atlantic","James River Basin","UPPER JAMES",2080201,"Upper James","Broad Run-Craig Creek",20802011003,"Craig Creek-Broad Run","JU-J","JU43",NA
"2-CRG074.47","AWTSHD","STREAM","WCRO","Blue Ridge","USFS Recreation area along Rt 621",2,"TM","AMBNT",37.33440278,-80.33118611,2,"Mid Atlantic","James River Basin","UPPER JAMES",2080201,"Upper James","Trout Creek-Craig Creek",20802011001,"Craig Creek-Trout Creek","JU-J","JU41",NA
"2-CSR003.94","APROB","STREAM","WCRO","Blue Ridge","Rt. 600 Crossing",2,"RB","AMBNT",37.72799167,-80.10519722,2,"Mid Atlantic","James River Basin","UPPER JAMES",2080201,"Upper James","Cast Steel Run-Potts Creek",20802010404,"Potts Creek-Cast Steel Run","JU-D","JU19","VAEQ99-596"
"2-CVA002.15","SSTUDY","STREAM","WCRO","Blue Ridge","West of Nimrod Rd at trail crossing",2,"RB","AMBNT",37.580008,-80.131643,2,"Mid Atlantic","James River Basin","UPPER JAMES",2080201,"Upper James","Barbours Creek",20802011202,"Barbours Creek","JU-L","JU47",NA
"2-CWP002.58","ATRND","STREAM","WCRO","Blue Ridge","RT. 633 BRIDGE, E OF IRON GATE",2,"TR","AMBNT",37.79194444,-79.75944444,2,"Mid Atlantic","James River Basin","UPPER JAMES",2080201,"Upper James","Simpson Creek-Cowpasture River",20802010803,"Cowpasture River-Simpson Creek","JU-H","JU36","2016000"
"2-DCK003.58","APROB","STREAM","WCRO","Blue Ridge","Rt. 658 Bridge",2,"PA","AMBNT",37.46008333,-80.35255556,2,"Mid Atlantic","James River Basin","UPPER JAMES",2080201,"Upper James","Upper Johns Creek",20802011101,"Upper Johns Creek","JU-K","JU44",NA
"2-DCK003.94","APROB","STREAM","WCRO","Blue Ridge","Off Rt. 658 north of Blue Healing Spring",2,"FP","AMBNT",37.46334445,-80.34827222,2,"Mid Atlantic","James River Basin","UPPER JAMES",2080201,"Upper James","Upper Johns Creek",20802011101,"Upper Johns Creek","JU-K","JU44","VAEQ99-481"
"2-DKR001.68","AWTSHD","STREAM","SCRO","Blue Ridge","Ducker Creek @ rt 725",2,"RB","AMBNT",37.36444445,-78.53722222,2,"Mid Atlantic","James River Basin","APPOMATTOX",2080207,"Appomattox","Ducker Creek-Appomattox River",20802070205,"Appomattox River-Ducker Creek","JA-B","JA05",NA
"2-DNP001.98","ATRND","STREAM","WCRO","Blue Ridge","BRIDGE ABOVE BOYS HOME - ALLEGHANY COUNT",2,"TR","AMBNT",37.80333333,-80.02166667,2,"Mid Atlantic","James River Basin","UPPER JAMES",2080201,"Upper James","Jerrys Run-Dunlap Creek",20802010304,"Dunlap Creek-Jerrys Run","JU-C","JU15",NA
"2-DNP018.47","AWTSHD","STREAM","WCRO","Blue Ridge","Rt. 159 Bridge north of Crows",2,"AW","AMBNT",37.73455278,-80.19107778,2,"Mid Atlantic","James River Basin","UPPER JAMES",2080201,"Upper James","Cove Run-Dunlap Creek",20802010302,"Dunlap Creek-Cove Run","JU-C","JU13",NA
"2-DPC017.07","AWTSHD","STREAM","PRO","Blue Ridge","DEEP CREEK, RT. 614 BRIDGE",2,"AW","AMBNT",37.20916667,-77.98666667,2,"Mid Atlantic","James River Basin","APPOMATTOX",2080207,"Appomattox","Little Creek-Deep Creek",20802070701,"Deep Creek-Little Creek","JA-G","JA29",NA
"2-DPC019.03","AWTSHD","STREAM","PRO","Blue Ridge","DEEP CREEK, RT. 611 BRIDGE",7114,"TM","AMBNT",37.19416667,-78.00916667,2,"Mid Atlantic","James River Basin","APPOMATTOX",2080207,"Appomattox","Little Creek-Deep Creek",20802070701,"Deep Creek-Little Creek","JA-G","JA29",NA
"2-DVD000.23","AWTSHD","STREAM","SCRO","Blue Ridge","DAVIDS CR., RT 605",2,"AW","AMBNT",37.54944445,-78.82083333,2,"Mid Atlantic","James River Basin","MIDDLE JAMES-BUFFALO",2080203,"Middle James Buffalo","David Creek",20802030801,"David Creek","JM-H","JM19",NA
"2-ELS000.08","AWTSHD","STREAM","WCRO","Blue Ridge","Rt. 643 Bridge Botetourt County",2,"TM","AMBNT",37.49138611,-79.73630556,2,"Mid Atlantic","James River Basin","UPPER JAMES",2080201,"Upper James","Mill Creek-Looney Creek",20802011403,"Looney Creek-Mill Creek","JU-N","JU55",NA
"2-FAS000.20","AWTSHD","STREAM","WCRO","Blue Ridge","ROUTE 687 BRIDGE - ALLEGHANY COUNTY",2,"RB","AMBNT",37.88777778,-79.97916667,2,"Mid Atlantic","James River Basin","UPPER JAMES",2080201,"Upper James","Falling Spring Creek-Jackson River",20802010502,"Jackson River-Falling Spring Creek","JU-E","JU10",NA
"2-FAS001.08","AWTSHD","STREAM","WCRO","Blue Ridge","Rt. 640 Bridge Alleghany Co.",2,"RB","AMBNT",37.88400833,-79.96574722,2,"Mid Atlantic","James River Basin","UPPER JAMES",2080201,"Upper James","Falling Spring Creek-Jackson River",20802010502,"Jackson River-Falling Spring Creek","JU-E","JU10",NA
"2-FAS002.67","BIOMON","STREAM","WCRO","Blue Ridge","Downstream of Hydro Diversion",2,"RB","AMBNT",37.86878333,-79.94982778,2,"Mid Atlantic","James River Basin","UPPER JAMES",2080201,"Upper James","Falling Spring Creek-Jackson River",20802010502,"Jackson River-Falling Spring Creek","JU-E","JU10",NA
"2-FAS002.75","BIOMON","STREAM","WCRO","Blue Ridge","Upstream of Hydro Diversion",2,"RB","AMBNT",37.86841667,-79.94878333,2,"Mid Atlantic","James River Basin","UPPER JAMES",2080201,"Upper James","Falling Spring Creek-Jackson River",20802010502,"Jackson River-Falling Spring Creek","JU-E","JU10",NA
"2-FLA028.98","AWTSHD","STREAM","PRO","Blue Ridge","Flat Creek at Rt. 629, Bob White Rd",7114,"TM","AMBNT",37.25136111,-78.18636111,2,"Mid Atlantic","James River Basin","APPOMATTOX",2080207,"Appomattox","Little Creek-Flat Creek",20802070501,"Flat Creek-Little Creek","JA-E","JA24",NA
"2-FRY000.35","SSTUDY","STREAM","SCRO","Blue Ridge","Frisby Branch @ Rt.24 Streamside Sample",2,"RB","AMBNT",37.52027778,-78.61777778,2,"Mid Atlantic","James River Basin","MIDDLE JAMES-BUFFALO",2080203,"Middle James Buffalo","Grease Creek-Slate River",20802031301,"Slate River-Grease Creek","JM-M","JM51",NA
"2-FSP000.53","ATRND","STREAM","SCRO","Blue Ridge","FISHPOND CR., RT 617",2,"TR","AMBNT",37.36888889,-78.64555556,2,"Mid Atlantic","James River Basin","APPOMATTOX",2080207,"Appomattox","Fishpond Creek-Appomattox River",20802070203,"Appomattox River-Fishpond Creek","JA-B","JA03",NA
"2-GRD001.62","AWTSHD","STREAM","SCRO","Blue Ridge","Grease Creek @ Rt 24",2,"AW","AMBNT",37.51188889,-78.61811111,2,"Mid Atlantic","James River Basin","MIDDLE JAMES-BUFFALO",2080203,"Middle James Buffalo","Grease Creek-Slate River",20802031301,"Slate River-Grease Creek","JM-M","JM51",NA
"2-GRF000.98","AWTSHD","STREAM","SCRO","Blue Ridge","Green Cr @ rt 600, Cumb Co",2,"AW","AMBNT",37.33111111,-78.315,2,"Mid Atlantic","James River Basin","APPOMATTOX",2080207,"Appomattox","Angola Creek-Appomattox River",20802070402,"Appomattox River-Angola Creek","JA-D","JA16",NA
"2-HAM000.37","APROB","STREAM","WCRO","Blue Ridge","Along Rhodes Ln. (Rt. 663)",2,"FP","AMBNT",37.4128,-80.021,2,"Mid Atlantic","James River Basin","UPPER JAMES",2080201,"Upper James","Little Catawba Creek-Catawba Creek",20802011301,"Catawba Creek-Little Catawba Creek","JU-M","JU52","VARS11-015"
"2-HAZ007.16","SSTUDY","STREAM","SCRO","Blue Ridge","RT. 130 BRIDGE ABOCE MADISON HEIGHTS WAT",2,"RB","AMBNT",37.485,-79.16583333,2,"Mid Atlantic","James River Basin","MIDDLE JAMES-BUFFALO",2080203,"Middle James Buffalo","Harris Creek",20802030302,"Harris Creek","JM-C","JM08",NA
"2-HAZ010.92","AWTSHD","STREAM","SCRO","Blue Ridge","Harris Cr @ rt 657",2,"AW","AMBNT",37.50083333,-79.13583333,2,"Mid Atlantic","James River Basin","MIDDLE JAMES-BUFFALO",2080203,"Middle James Buffalo","Harris Creek",20802030302,"Harris Creek","JM-C","JM08",NA
"2-HCH004.81","AWTSHD","STREAM","SCRO","Blue Ridge","Hatcher Creek at Rt. 667 Bridge",2,"AW","AMBNT",37.54888889,-78.34583333,2,"Mid Atlantic","James River Basin","MIDDLE JAMES-WILLIS",2080205,"Middle James Willis","Hatcher Creek",20802050205,"Hatcher Creek","JM-Q","JM67",NA
"2-HOL001.05","AWTSHD","RESERV","SCRO","Blue Ridge","HOLIDAY LAKE STA #1 NEAR DAM APPOMATTOX",2,"RL","AMBNT",37.39158056,-78.63600278,2,"Mid Atlantic","James River Basin","APPOMATTOX",2080207,"Appomattox","Fishpond Creek-Appomattox River",20802070203,"Appomattox River-Fishpond Creek","JA-B","JA03",NA
"2-HOL003.15","ATRND","STREAM",NA,"Blue Ridge","RT. 614 BRIDGE",2,"TR","AMBNT",37.41611111,-78.63613889,2,"Mid Atlantic","James River Basin","APPOMATTOX",2080207,"Appomattox","Fishpond Creek-Appomattox River",20802070203,"Appomattox River-Fishpond Creek","JA-B","JA03",NA
"2-HRE000.44","AWTSHD","STREAM","SCRO","Blue Ridge","Horsepen Cr @ rt683 west of rt15",2,"RB","AMBNT",37.34416667,-78.49083333,2,"Mid Atlantic","James River Basin","APPOMATTOX",2080207,"Appomattox","Ducker Creek-Appomattox River",20802070205,"Appomattox River-Ducker Creek","JA-B","JA05",NA
"2-HRP000.42","SSTUDY","STREAM","SCRO","Blue Ridge","HORSEPEN CR. AT RT. 660",2,"RB","AMBNT",37.41722222,-78.28027778,2,"Mid Atlantic","James River Basin","APPOMATTOX",2080207,"Appomattox","Big Guinea Creek",20802070404,"Big Guinea Creek","JA-D","JA18",NA
"2-HUO005.87","BIOMON","STREAM","WCRO","Blue Ridge","Off Rt. 602",2,"RB","AMBNT",37.5392,-79.44821111,2,"Mid Atlantic","James River Basin","MIDDLE JAMES-BUFFALO",2080203,"Middle James Buffalo","Otter Creek-James River",20802030101,"James River-Otter Creek","JM-A","JM01",NA
"2-HUS002.24","AWTSHD","STREAM","SCRO","Blue Ridge","Hunts Cr @ rt 675",2,"AW","AMBNT",37.688,-78.34947222,2,"Mid Atlantic","James River Basin","MIDDLE JAMES-BUFFALO",2080203,"Middle James Buffalo","Hunts Creek-Slate River",20802031403,"Slate River-Hunts Creek","JM-N","JM57",NA
"2-IVA000.05","SSTUDY","STREAM","SCRO","Blue Ridge","Ivy Cr- upstr of conf w/ blackwater cr",2,"RB","AMBNT",37.41805556,-79.18611111,2,"Mid Atlantic","James River Basin","MIDDLE JAMES-BUFFALO",2080203,"Middle James Buffalo","Cheese Creek-Ivy Creek",20802030303,"Ivy Creek-Cheese Creek","JM-C","JM09",NA
"2-IVA005.43","AWTSHD","STREAM","SCRO","Blue Ridge","Peaks View Park - Admore Bridge",2,"RB","AMBNT",37.4196,-79.2237,2,"Mid Atlantic","James River Basin","MIDDLE JAMES-BUFFALO",2080203,"Middle James Buffalo","Cheese Creek-Ivy Creek",20802030303,"Ivy Creek-Cheese Creek","JM-C","JM09",NA
"2-IVA005.75","SSTUDY","STREAM","SCRO","Blue Ridge","Ivy Cr @ peaksview-tenbury bridge",2,"RB","AMBNT",37.41666667,-79.22583333,2,"Mid Atlantic","James River Basin","MIDDLE JAMES-BUFFALO",2080203,"Middle James Buffalo","Cheese Creek-Ivy Creek",20802030303,"Ivy Creek-Cheese Creek","JM-C","JM09",NA
"2-IVA012.13","AWTSHD","STREAM","SCRO","Blue Ridge","Ivy Cr @ rt 662",2,"AW","AMBNT",37.39027778,-79.2825,2,"Mid Atlantic","James River Basin","MIDDLE JAMES-BUFFALO",2080203,"Middle James Buffalo","Cheese Creek-Ivy Creek",20802030303,"Ivy Creek-Cheese Creek","JM-C","JM09",NA
"2-JED008.07","APROB","STREAM","WCRO","Blue Ridge","Along USFS Rd 69",2,"AW","AMBNT",37.7974,-80.19388889,2,"Mid Atlantic","James River Basin","UPPER JAMES",2080201,"Upper James","Cove Run-Dunlap Creek",20802010302,"Dunlap Creek-Cove Run","JU-C","JU13","VARS11-156"
"2-JES000.80","AWTSHD","STREAM","WCRO","Blue Ridge","ROUTE 614 BRIDGE - BOTETOURT COUNTY",2,"AW","AMBNT",37.54861111,-79.62861111,2,"Mid Atlantic","James River Basin","UPPER JAMES",2080201,"Upper James","North Creek-Jennings Creek",20802011502,"Jennings Creek-North Creek","JU-O","JU57",NA
"2-JES002.87","BIOMON","STREAM","WCRO","Blue Ridge","Along Rt. 614, at USFS fishing access",2,"RB","AMBNT",37.5292,-79.6242,2,"Mid Atlantic","James River Basin","UPPER JAMES",2080201,"Upper James","North Creek-Jennings Creek",20802011502,"Jennings Creek-North Creek","JU-O","JU57",NA
"2-JKS000.38","ATRND","STREAM","WCRO","Blue Ridge","RT. 727 IRON GATE",10018,"TR","AMBNT",37.78833333,-79.78111111,2,"Mid Atlantic","James River Basin","UPPER JAMES",2080201,"Upper James","Smith Creek-Jackson River",20802010507,"Jackson River-Smith Creek","JU-E","JU24","2016500"
"2-JKS006.67","AWTSHD","STREAM","WCRO","Blue Ridge","LOW WATER BR NEAR DABNEY LANCASTER COMM.",10018,"TM","AMBNT",37.81055556,-79.85416667,2,"Mid Atlantic","James River Basin","UPPER JAMES",2080201,"Upper James","Smith Creek-Jackson River",20802010507,"Jackson River-Smith Creek","JU-E","JU24",NA
"2-JKS013.29","AWTSHD","STREAM","WCRO","Blue Ridge","OFF ROUTE 696, ABOVE LOWMOOR - ALLEGHANY",10018,"TM","AMBNT",37.78055555,-79.92777778,2,"Mid Atlantic","James River Basin","UPPER JAMES",2080201,"Upper James","Pounding Mill Creek-Jackson River",20802010504,"Jackson River-Pounding Mill Creek","JU-E","JU21",NA
"2-JKS018.68","AWTSHD","STREAM","WCRO","Blue Ridge","RT. 18 - CITY OF COVINGTON",10018,"TM","AMBNT",37.75638889,-79.9875,2,"Mid Atlantic","James River Basin","UPPER JAMES",2080201,"Upper James","Pounding Mill Creek-Jackson River",20802010504,"Jackson River-Pounding Mill Creek","JU-E","JU21",NA
"2-JKS023.61","ATRND","STREAM","WCRO","Blue Ridge","JACKSON RIVER AT COVINGTON GAGE",10018,"TM","AMBNT",37.78861111,-80.00083333,2,"Mid Atlantic","James River Basin","UPPER JAMES",2080201,"Upper James","Pounding Mill Creek-Jackson River",20802010504,"Jackson River-Pounding Mill Creek","JU-E","JU21","2013100"
"2-JKS026.01","AWTSHD","STREAM","WCRO","Blue Ridge","COVINGTON WATER FILTRATION PLANT",10018,"AW","AMBNT",37.81111111,-79.98888889,2,"Mid Atlantic","James River Basin","UPPER JAMES",2080201,"Upper James","Indian Draft-Jackson River",20802010503,"Jackson River-Indian Draft","JU-E","JU11",NA
"2-JKS028.69","APROB","STREAM","WCRO","Blue Ridge","North of Intervale",2,"FP","AMBNT",37.82269167,-79.98936667,2,"Mid Atlantic","James River Basin","UPPER JAMES",2080201,"Upper James","Indian Draft-Jackson River",20802010503,"Jackson River-Indian Draft","JU-E","JU11","VAEQ99-431"
"2-JKS030.65","ATRND","STREAM","WCRO","Blue Ridge","ROUTE 687 BRIDGE, CLEARWATER PARK - ALLE",10018,"TM","AMBNT",37.84194445,-79.98916667,2,"Mid Atlantic","James River Basin","UPPER JAMES",2080201,"Upper James","Indian Draft-Jackson River",20802010503,"Jackson River-Indian Draft","JU-E","JU11","2013000"
"2-JKS033.06","APROB","STREAM","WCRO","Blue Ridge","Below confl with Indian Draft",2,"FP","AMBNT",37.85852778,-79.98352222,2,"Mid Atlantic","James River Basin","UPPER JAMES",2080201,"Upper James","Indian Draft-Jackson River",20802010503,"Jackson River-Indian Draft","JU-E","JU11","VA-1012"
"2-JKS034.04","BIOMON","STREAM",NA,"Blue Ridge","Jackson R. Upstream of Indian Draft",2,"RB","AMBNT",37.868528,-79.988689,2,"Mid Atlantic","James River Basin","UPPER JAMES",2080201,"Upper James","Falling Spring Creek-Jackson River",20802010502,"Jackson River-Falling Spring Creek","JU-E","JU10",NA
"2-JKS036.11","AWTSHD","STREAM","WCRO","Blue Ridge","JACKSON RIVER AT FALLING SPRING GAGE SMT",2,"PA","AMBNT",37.87638889,-79.9775,2,"Mid Atlantic","James River Basin","UPPER JAMES",2080201,"Upper James","Falling Spring Creek-Jackson River",20802010502,"Jackson River-Falling Spring Creek","JU-E","JU10",NA
"2-JKS042.29","BIOMON","STREAM",NA,"Blue Ridge","Jackson River at Sycamore Bend",2,"RB","AMBNT",37.937778,-79.955611,2,"Mid Atlantic","James River Basin","UPPER JAMES",2080201,"Upper James","Falling Spring Creek-Jackson River",20802010502,"Jackson River-Falling Spring Creek","JU-E","JU10",NA
"2-JKS044.10","AWTSHD","STREAM","WCRO","Blue Ridge","Below Gathright Dam at Gage",10018,"TM","AMBNT",37.94833333,-79.94944444,2,"Mid Atlantic","James River Basin","UPPER JAMES",2080201,"Upper James","Falling Spring Creek-Jackson River",20802010502,"Jackson River-Falling Spring Creek","JU-E","JU10",NA
"2-JKS044.60","AWTSHD","RESERV","WCRO","Blue Ridge","MOOMAW #1A-TOP-DAM #1B-MIDDLE-DAM #1C-BO",2,"RL","AMBNT",37.95138889,-79.95833333,2,"Mid Atlantic","James River Basin","UPPER JAMES",2080201,"Upper James","Lake Moomaw-Jackson River",20802010205,"Jackson River/Lake Moomaw","JU-B","JU08",NA
"2-JKS046.40","AWTSHD","RESERV","WCRO","Blue Ridge","MOOMAW #2ATOP CONF W/BIG LICK CREEK #2B-",2,"RL","AMBNT",37.95138889,-79.97638889,2,"Mid Atlantic","James River Basin","UPPER JAMES",2080201,"Upper James","Lake Moomaw-Jackson River",20802010205,"Jackson River/Lake Moomaw","JU-B","JU08",NA
"2-JMS166.50","SSTUDY","STREAM","SCRO","Blue Ridge","James River at Rt. 690, Colombia, VA",2,"PA","AMBNT",37.74972222,-78.16194445,2,"Mid Atlantic","James River Basin","MIDDLE JAMES-WILLIS",2080205,"Middle James Willis","Hooper Rock Creek-James River",20802050401,"James River-Hooper Rock Creek","JM-S","JM62",NA
"2-JMS176.63","ATRND","STREAM","SCRO","Blue Ridge","Rt. 15 Bridge",2,"TR","AMBNT",37.70972222,-78.30222222,2,"Mid Atlantic","James River Basin","MIDDLE JAMES-BUFFALO",2080203,"Middle James Buffalo","Bear Garden Creek-James River",20802031502,"James River-Bear Garden Creek","JM-O","JM58",NA
"2-JMS258.54","ATRND","STREAM","SCRO","Blue Ridge","UNDER RT. 29 BR -PERCIVALS ISLAND LOT",2,"TR","AMBNT",37.41027778,-79.13416667,2,"Mid Atlantic","James River Basin","MIDDLE JAMES-BUFFALO",2080203,"Middle James Buffalo","Opossum Creek-James River",20802030305,"James River-Opossum Creek","JM-C","JM11",NA
"2-JMS270.84","ATRND","STREAM","SCRO","Blue Ridge","AT POWER PLANT AT HOLCOMB ROCK DAM",2,"TR","AMBNT",37.50305556,-79.26222222,2,"Mid Atlantic","James River Basin","MIDDLE JAMES-BUFFALO",2080203,"Middle James Buffalo","Judith Creek-James River",20802030301,"James River-Judith Creek","JM-C","JM07",NA
"2-JMS275.75","ATRND","STREAM","WCRO","Blue Ridge","BELOW BIG ISLAND",10018,"TR","AMBNT",37.51333333,-79.33166667,2,"Mid Atlantic","James River Basin","MIDDLE JAMES-BUFFALO",2080203,"Middle James Buffalo","Thomas Mill Creek-James River",20802030103,"James River-Thomas Mill Creek","JM-A","JM03","2025500"
"2-JMS279.41","ATRND","STREAM","SCRO","Blue Ridge","BLUE RIDGE PKWY BRIDGE ABOVE BIG ISLAND",45128,"CB","AMBNT",37.555325,-79.36725556,2,"Mid Atlantic","James River Basin","MIDDLE JAMES-BUFFALO",2080203,"Middle James Buffalo","Otter Creek-James River",20802030101,"James River-Otter Creek","JM-A","JM01","2024752"
"2-JMS282.28","ATRND","STREAM","WCRO","Blue Ridge","RT. 501 BRIDGE, SE OF GLASGOW",10018,"TR","AMBNT",37.59119444,-79.38094444,2,"Mid Atlantic","James River Basin","MIDDLE JAMES-BUFFALO",2080203,"Middle James Buffalo","Otter Creek-James River",20802030101,"James River-Otter Creek","JM-A","JM01","2024752"
"2-JMS297.28","APROB","STREAM","WCRO","Blue Ridge","Downstream of Alpine",2,"FP","AMBNT",37.5791,-79.58219445,2,"Mid Atlantic","James River Basin","UPPER JAMES",2080201,"Upper James","Roaring Run-James River",20802011503,"James River-Roaring Run","JU-O","JU58","VARS11-163"
"2-JMS298.17","AWTSHD","STREAM","WCRO","Blue Ridge","Rt. 608 Pull Off",2,"PA","AMBNT",37.58016667,-79.59838889,2,"Mid Atlantic","James River Basin","UPPER JAMES",2080201,"Upper James","Roaring Run-James River",20802011503,"James River-Roaring Run","JU-O","JU58",NA
"2-JMS309.13","AWTSHD","STREAM","WCRO","Blue Ridge","RT. 11 BRIDGE AT BUCHANAN",10018,"AW","AMBNT",37.53,-79.67777778,2,"Mid Atlantic","James River Basin","UPPER JAMES",2080201,"Upper James","Purgatory Creek-James River",20802011501,"James River-Purgatory Creek","JU-O","JU56",NA
"2-JMS312.32","APROB","STREAM","WCRO","Blue Ridge","Upstr of David Run confluence",2,"FP","AMBNT",37.5389,-79.7197,2,"Mid Atlantic","James River Basin","UPPER JAMES",2080201,"Upper James","Hickory Hollow Branch-James River",20802011402,"James River-Hickory Hollow Branch","JU-N","JU54","VARS11-036"
"2-JMS313.85","AWTSHD","STREAM","WCRO","Blue Ridge","Rt 630 Springwood Boat Ramp",2,"AW","AMBNT",37.54766667,-79.74255556,2,"Mid Atlantic","James River Basin","UPPER JAMES",2080201,"Upper James","Hickory Hollow Branch-James River",20802011402,"James River-Hickory Hollow Branch","JU-N","JU54",NA
"2-JMS345.73","BIOMON","STREAM","WCRO","Blue Ridge","ROUTE 220 - 1ST BRIDGE BELOW COWPASTURE",10018,"TM","AMBNT",37.77555556,-79.78083333,2,"Mid Atlantic","James River Basin","UPPER JAMES",2080201,"Upper James","Big Creek-James River",20802010901,"James River-Big Creek","JU-I","JU37",NA
"2-JMS346.34","APROB","STREAM","WCRO","Blue Ridge","Upstream of Rt. 220 and Lick Run",NA,"FP","AMBNT",37.7831,-79.77588889,2,"Mid Atlantic","James River Basin","UPPER JAMES",2080201,"Upper James","Big Creek-James River",20802010901,"James River-Big Creek","JU-I","JU37","VARS11-182"
"2-JOB000.39","AWTSHD","STREAM","WCRO","Blue Ridge","JOHNS CREEK AT NEW CASTLE GAGE RT. 615 B",2,"AW","AMBNT",37.50638889,-80.105,2,"Mid Atlantic","James River Basin","UPPER JAMES",2080201,"Upper James","Lower Johns Creek",20802011102,"Lower Johns Creek","JU-K","JU45","2017500"
"2-JOB013.77","APROB","STREAM","WCRO","Blue Ridge","Off Rt. 632, near Paxton Branch",2,"FP","AMBNT",37.4811,-80.2604,2,"Mid Atlantic","James River Basin","UPPER JAMES",2080201,"Upper James","Lower Johns Creek",20802011102,"Lower Johns Creek","JU-K","JU45","VARS11-056"
"2-JTH006.53","AWTSHD","STREAM","SCRO","Blue Ridge","X of 761 & 647 just off 501 past Bnsboro",2,"AW","AMBNT",37.46833333,-79.26305556,2,"Mid Atlantic","James River Basin","MIDDLE JAMES-BUFFALO",2080203,"Middle James Buffalo","Judith Creek-James River",20802030301,"James River-Judith Creek","JM-C","JM07",NA
"2-KAR001.59","AWTSHD","STREAM","WCRO","Blue Ridge","PRIVATE BR.OFF RT. 616,BELOW CONF.WHITE",2,"AW","AMBNT",37.77527778,-79.89416667,2,"Mid Atlantic","James River Basin","UPPER JAMES",2080201,"Upper James","Karnes Creek-White Rock Creek",20802010505,"White Rock Creek-Karnes Creek","JU-E","JU22",NA
"2-LAP001.20","AWTSHD","STREAM","WCRO","Blue Ridge","RT. 726 BRIDGE",2,"AW","AMBNT",37.61094167,-79.80160555,2,"Mid Atlantic","James River Basin","UPPER JAMES",2080201,"Upper James","Lapsley Run-James River",20802011401,"James River-Lapsley Run","JU-N","JU51",NA
"2-LDJ000.60","AWTSHD","RESERV","PRO","Blue Ridge","AT DAM-RT.460 W., RT. 609 N NOTTOWAY CO.",2,"RL","AMBNT",37.16777778,-77.98361111,2,"Mid Atlantic","James River Basin","APPOMATTOX",2080207,"Appomattox","Cellar Creek",20802070702,"Cellar Creek","JA-G","JA30",NA
"2-LDJ002.96","TMDL","STREAM","PRO","Blue Ridge","Lees Creek 0.5 mi above Lake Nottoway",7114,"TM","AMBNT",37.13638889,-77.97972222,2,"Mid Atlantic","James River Basin","APPOMATTOX",2080207,"Appomattox","Cellar Creek",20802070702,"Cellar Creek","JA-G","JA30",NA
"2-LIF000.08","BIOMON","STREAM","SCRO","Blue Ridge","upstream of Forest Road 39",2,"RB","AMBNT",37.67155556,-79.28338889,2,"Mid Atlantic","James River Basin","MIDDLE JAMES-BUFFALO",2080203,"Middle James Buffalo","Browns Creek-Pedlar River",20802030202,"Pedlar River-Browns Creek","JM-B","JM05",NA
"2-LIP001.00","AWTSHD","STREAM","WCRO","Blue Ridge","Rt. 682 Bridge",2,"TM","AMBNT",37.63305555,-79.85638889,2,"Mid Atlantic","James River Basin","UPPER JAMES",2080201,"Upper James","Patterson Creek",20802011204,"Patterson Creek","JU-L","JU49",NA
"2-LIT002.40","SSTUDY","STREAM","SCRO","Blue Ridge","LITTLE SANDY R. AT RT. 612",2,"TM","AMBNT",37.20805555,-78.32027778,2,"Mid Atlantic","James River Basin","APPOMATTOX",2080207,"Appomattox","Sandy River",20802070305,"Bush River-Sandy River","JA-C","JA14",NA
"2-LIT004.77","APROB","STREAM","SCRO","Blue Ridge","Little Sandy Ck N of 629",2,"FP","AMBNT",37.17369445,-78.31577778,2,"Mid Atlantic","James River Basin","APPOMATTOX",2080207,"Appomattox","Sandy River",20802070305,"Bush River-Sandy River","JA-C","JA14",NA
"2-LIT005.43","SSTUDY","STREAM","SCRO","Blue Ridge","Little Sandy Creek at Rt. 629 bridge",2,"RB","AMBNT",37.16555556,-78.31333333,2,"Mid Atlantic","James River Basin","APPOMATTOX",2080207,"Appomattox","Sandy River",20802070305,"Bush River-Sandy River","JA-C","JA14",NA
"2-LMC000.40","ATRND","STREAM","WCRO","Blue Ridge","STATION #3 RT.625 BRIDGE (BOTETOURT COUN",2,"TR","AMBNT",37.51611111,-79.70972222,2,"Mid Atlantic","James River Basin","UPPER JAMES",2080201,"Upper James","Mill Creek-Looney Creek",20802011403,"Looney Creek-Mill Creek","JU-N","JU55",NA
"2-LOB000.37","APROB","STREAM","SCRO","Blue Ridge","Amherst County Prop. Off Rt. 60",9123,"TM","AMBNT",37.65805833,-79.17571389,2,"Mid Atlantic","James River Basin","MIDDLE JAMES-BUFFALO",2080203,"Middle James Buffalo","North Fork Buffalo River-Buffalo River",20802030601,"Buffalo River-North Fork Buffalo River","JM-F","JM28","VAEQ99-059"
"2-LPS000.10","BIOMON","STREAM","WCRO","Blue Ridge","Upstr of Rt. 617, along trail",2,"RB","AMBNT",37.60371944,-80.07896944,2,"Mid Atlantic","James River Basin","UPPER JAMES",2080201,"Upper James","Barbours Creek",20802011202,"Barbours Creek","JU-L","JU47",NA
"2-LTQ000.64","AWTSHD","STREAM","WCRO","Blue Ridge","Rt. 779 Bridge",2,"RB","AMBNT",37.45472222,-80.01694444,2,"Mid Atlantic","James River Basin","UPPER JAMES",2080201,"Upper James","Little Catawba Creek-Catawba Creek",20802011301,"Catawba Creek-Little Catawba Creek","JU-M","JU52",NA
"2-LWW004.14","AWTSHD","STREAM","SCRO","Blue Ridge","Little Willis R @ rt 600",2,"AW","AMBNT",37.41083333,-78.41277778,2,"Mid Atlantic","James River Basin","MIDDLE JAMES-WILLIS",2080205,"Middle James Willis","Little Willis River",20802050203,"Little Willis River","JM-Q","JM65",NA
"2-MBN000.96","AWTSHD","RESERV","SCRO","Blue Ridge","SANDY RIVER RESERVOIR, MARROWBONE CR AR",2,"RL","AMBNT",37.25472222,-78.30361111,2,"Mid Atlantic","James River Basin","APPOMATTOX",2080207,"Appomattox","Sandy River",20802070305,"Bush River-Sandy River","JA-C","JA14",NA
"2-MEA000.75","SSTUDY","STREAM","SCRO","Blue Ridge","Meadow Cr @ Rt 661",2,"RB","AMBNT",37.55833333,-78.66194445,2,"Mid Atlantic","James River Basin","MIDDLE JAMES-BUFFALO",2080203,"Middle James Buffalo","Meadow Creek-North River",20802031302,"North River-Meadow Creek","JM-M","JM52",NA
"2-MEO000.38","AWTSHD","STREAM","WCRO","Blue Ridge","RT. 311 BRIDGE",2,"AW","AMBNT",37.49083333,-80.10666667,2,"Mid Atlantic","James River Basin","UPPER JAMES",2080201,"Upper James","Meadow Creek",20802011002,"Meadow Creek","JU-J","JU42",NA
"2-MIA000.79","AWTSHD","STREAM","WCRO","Blue Ridge","Junction of Rt. 11 and Rt. 722",2,"TM","AMBNT",37.50395,-79.73976944,2,"Mid Atlantic","James River Basin","UPPER JAMES",2080201,"Upper James","Mill Creek-Looney Creek",20802011403,"Looney Creek-Mill Creek","JU-N","JU55",NA
"2-MIN000.98","SSTUDY","RESERV","SCRO","Blue Ridge","Mill Cr Reservoir- Main Lake site @ dam",2,"RL","AMBNT",37.66111111,-79.07861111,2,"Mid Atlantic","James River Basin","MIDDLE JAMES-BUFFALO",2080203,"Middle James Buffalo","Stonewall Creek-Buffalo River",20802030602,"Buffalo River-Stonewall Creek","JM-F","JM29",NA
"2-MIN002.25","SSTUDY","STREAM","SCRO","Blue Ridge","Mill Creek @ rt 778 Lowesville rd",2,"RL","AMBNT",37.67027778,-79.09333333,2,"Mid Atlantic","James River Basin","MIDDLE JAMES-BUFFALO",2080203,"Middle James Buffalo","Stonewall Creek-Buffalo River",20802030602,"Buffalo River-Stonewall Creek","JM-F","JM29",NA
"2-MIU000.77","BIOMON","STREAM","WCRO","Blue Ridge","Above Rt. 615",2,"RB","AMBNT",37.56195833,-80.04299722,2,"Mid Atlantic","James River Basin","UPPER JAMES",2080201,"Upper James","Mill Creek-Craig Creek",20802011203,"Craig Creek-Mill Creek","JU-L","JU48",NA
"2-MIU001.75","SSTUDY","STREAM","WCRO","Blue Ridge","Below pond at Fenwick Mines (USFS 6514)",2,"RB","AMBNT",37.56785,-80.0553,2,"Mid Atlantic","James River Basin","UPPER JAMES",2080201,"Upper James","Mill Creek-Craig Creek",20802011203,"Craig Creek-Mill Creek","JU-L","JU48","USFS 6514"
"2-MIU002.97","SSTUDY","STREAM","WCRO","Blue Ridge","Upstr of pond at Fenwick Mines",2,"RB","AMBNT",37.58145833,-80.0454,2,"Mid Atlantic","James River Basin","UPPER JAMES",2080201,"Upper James","Mill Creek-Craig Creek",20802011203,"Craig Creek-Mill Creek","JU-L","JU48","USFS 6515"
"2-MIV000.39","AWTSHD","STREAM","WCRO","Blue Ridge","ROUTE 694, GALA - BOTETOURT COUNTY",2,"RB","AMBNT",37.68777778,-79.80638889,2,"Mid Atlantic","James River Basin","UPPER JAMES",2080201,"Upper James","Smith Branch-Mill Creek",20802010903,"Mill Creek-Smith Branch","JU-I","JU39",NA
"2-MLY005.39","BIOMON","STREAM","SCRO","Blue Ridge","Mallorys Creek @ rt 606",2,"RB","AMBNT",37.59313889,-78.74991667,2,"Mid Atlantic","James River Basin","MIDDLE JAMES-BUFFALO",2080203,"Middle James Buffalo","Mallorys Creek-James River",20802030803,"James River-Mallorys Creek","JM-H","JM34",NA
"2-MTC001.24","AWTSHD","STREAM","SCRO","Blue Ridge","Mountain Cr @ Rt 628",2,"AW","AMBNT",37.1925,-78.37166667,2,"Mid Atlantic","James River Basin","APPOMATTOX",2080207,"Appomattox","Mountain Creek",20802070303,"Mountain Creek","JA-C","JA12",NA
"2-MTC005.27","BIOMON","STREAM","SCRO","Blue Ridge","Mountain Creek @ Rte 632",2,"RB","AMBNT",37.14727778,-78.34677778,2,"Mid Atlantic","James River Basin","APPOMATTOX",2080207,"Appomattox","Mountain Creek",20802070303,"Mountain Creek","JA-C","JA12",NA
"2-MUY001.23","AWTSHD","STREAM","PRO","Blue Ridge","MUDDY CREEK, RT. 684 BRIDGE",2,"AW","AMBNT",37.64694444,-78.08444444,2,"Mid Atlantic","James River Basin","MIDDLE JAMES-WILLIS",2080205,"Middle James Willis","Muddy Creek",20802050402,"Muddy Creek","JM-S","JM71",NA
"2-MYC000.50","AWTSHD","STREAM","SCRO","Blue Ridge","Muddy Cr @ rt 651",2,"AW","AMBNT",37.63861111,-78.48777778,2,"Mid Atlantic","James River Basin","MIDDLE JAMES-BUFFALO",2080203,"Middle James Buffalo","Joshua Creek-Slate River",20802031401,"Slate River-Joshua Creek","JM-N","JM55",NA
"2-NBS000.92","SSTUDY","STREAM","SCRO","Blue Ridge","N. Branch Spring Cr @ Rt 661",2,"RB","AMBNT",37.22416667,-78.65972222,2,"Mid Atlantic","James River Basin","APPOMATTOX",2080207,"Appomattox","Spring Creek",20802070101,"Spring Creek","JA-A","JA06",NA
"2-NRT001.14","BIOMON","STREAM","WCRO","Blue Ridge","USFS RD. 59 NEAR ACADIA",2,"RB","AMBNT",37.54416667,-79.6025,2,"Mid Atlantic","James River Basin","UPPER JAMES",2080201,"Upper James","North Creek-Jennings Creek",20802011502,"Jennings Creek-North Creek","JU-O","JU57",NA
"2-NTH003.88","SSTUDY","STREAM","SCRO","Blue Ridge","North River @ Rt. 56",2,"AW","AMBNT",37.56111111,-78.59555556,2,"Mid Atlantic","James River Basin","MIDDLE JAMES-BUFFALO",2080203,"Middle James Buffalo","Meadow Creek-North River",20802031302,"North River-Meadow Creek","JM-M","JM52",NA
"2-OGL000.23","AWTSHD","STREAM","WCRO","Blue Ridge","Rt 159 Bridge",2,"AW","AMBNT",37.806725,-80.06628611,2,"Mid Atlantic","James River Basin","UPPER JAMES",2080201,"Upper James","Johnsons Creek-Ogle Creek",20802010303,"Ogle Creek-Johnsons Creek","JU-C","JU14",NA
"2-OGL005.53","APROB","STREAM","WCRO","Blue Ridge","Along Rt. 661 west of Callaghan",2,"FP","AMBNT",37.83986389,-80.12245833,2,"Mid Atlantic","James River Basin","UPPER JAMES",2080201,"Upper James","Johnsons Creek-Ogle Creek",20802010303,"Ogle Creek-Johnsons Creek","JU-C","JU14","VAEQ99-001"
"2-OPP007.03","SSTUDY","STREAM","SCRO","Blue Ridge","Opossum Cr @ Rt 677 bridge",2,"RB","AMBNT",37.34472222,-79.14222222,2,"Mid Atlantic","James River Basin","MIDDLE JAMES-BUFFALO",2080203,"Middle James Buffalo","Opossum Creek-James River",20802030305,"James River-Opossum Creek","JM-C","JM11",NA
"2-PAD000.14","AWTSHD","STREAM","WCRO","Blue Ridge","off Route 630 at swinging bridge",2,"AW","AMBNT",37.86536111,-79.73227778,2,"Mid Atlantic","James River Basin","UPPER JAMES",2080201,"Upper James","Pads Creek",20802010802,"Pads Creek","JU-H","JU35",NA
"2-PNY003.06","SSTUDY","STREAM","VRO","Blue Ridge","RT. 674 BRIDGE AT ROSES MILL",2,"AW","AMBNT",37.70138889,-78.99694444,2,"Mid Atlantic","James River Basin","MIDDLE JAMES-BUFFALO",2080203,"Middle James Buffalo","Naked Creek-Piney River",20802030506,"Piney River-Naked Creek","JM-E","JM26",NA
"2-PNY005.29","ATRND","STREAM","VRO","Blue Ridge","RT. 151 BRIDGE AT GAGING STATION NELSON/",2,"BN","AMBNT",37.7025,-79.0275,2,"Mid Atlantic","James River Basin","MIDDLE JAMES-BUFFALO",2080203,"Middle James Buffalo","Little Piney River-Piney River",20802030505,"Piney River-Little Piney River","JM-E","JM25",NA
"2-PNY005.30","BIOMON","STREAM","VRO","Blue Ridge","UPSTREAM OF ROUTE 151 - NELSON/AMHERST C",2,"RB","AMBNT",37.70194444,-79.02777778,2,"Mid Atlantic","James River Basin","MIDDLE JAMES-BUFFALO",2080203,"Middle James Buffalo","Little Piney River-Piney River",20802030505,"Piney River-Little Piney River","JM-E","JM25",NA
"2-POL000.04","AWTSHD","STREAM","SCRO","Blue Ridge","ROUTE 650 BRIDGE - AMHERST COUNTY",2,"AW","AMBNT",37.51,-79.26916667,2,"Mid Atlantic","James River Basin","MIDDLE JAMES-BUFFALO",2080203,"Middle James Buffalo","Horsley Creek-Pedlar River",20802030203,"Pedlar River-Horsley Creek","JM-B","JM06",NA
"2-POL007.20","TMDL","STREAM","SCRO","Blue Ridge","Rt 643",10125,"TM","AMBNT",37.579,-79.263,2,"Mid Atlantic","James River Basin","MIDDLE JAMES-BUFFALO",2080203,"Middle James Buffalo","Browns Creek-Pedlar River",20802030202,"Pedlar River-Browns Creek","JM-B","JM05",NA
"2-POL008.53","AWTSHD","STREAM","SCRO","Blue Ridge","PEDLAR R., RT 610",10125,"TM","AMBNT",37.60027778,-79.26388889,2,"Mid Atlantic","James River Basin","MIDDLE JAMES-BUFFALO",2080203,"Middle James Buffalo","Browns Creek-Pedlar River",20802030202,"Pedlar River-Browns Creek","JM-B","JM05",NA
"2-POL010.11","APROB","STREAM","SCRO","Blue Ridge","Below Rt. 640 Bridge",10125,"TM","AMBNT",37.61011111,-79.25310833,2,"Mid Atlantic","James River Basin","MIDDLE JAMES-BUFFALO",2080203,"Middle James Buffalo","Browns Creek-Pedlar River",20802030202,"Pedlar River-Browns Creek","JM-B","JM05","VAEQ99-194"
"2-POL017.59","SSTUDY","RESERV","SCRO","Blue Ridge","PEDLAR RIVER RESERVOIR",2,"RL","AMBNT",37.66944445,-79.27666667,2,"Mid Atlantic","James River Basin","MIDDLE JAMES-BUFFALO",2080203,"Middle James Buffalo","Lynchburg Reservoir-Pedlar River",20802030201,"Pedlar River-Lynchburg Reservoir","JM-B","JM04",NA
"2-POL028.68","AWTSHD","STREAM","SCRO","Blue Ridge","FR 76",2,"AW","AMBNT",37.746,-79.269,2,"Mid Atlantic","James River Basin","MIDDLE JAMES-BUFFALO",2080203,"Middle James Buffalo","Lynchburg Reservoir-Pedlar River",20802030201,"Pedlar River-Lynchburg Reservoir","JM-B","JM04",NA
"2-POT000.12","ATRND","STREAM","WCRO","Blue Ridge","RT. 18 BRIDGE",2,"TR","AMBNT",37.75166667,-79.99694444,2,"Mid Atlantic","James River Basin","UPPER JAMES",2080201,"Upper James","Hays Creek-Potts Creek",20802010405,"Potts Creek-Hays Creek","JU-D","JU20",NA
"2-POT007.48","AWTSHD","STREAM","WCRO","Blue Ridge","Rt. 18 bridge at gaging station",2,"TM","AMBNT",37.72852778,-80.04231389,2,"Mid Atlantic","James River Basin","UPPER JAMES",2080201,"Upper James","Cast Steel Run-Potts Creek",20802010404,"Potts Creek-Cast Steel Run","JU-D","JU19",NA
"2-POT030.66","AWTSHD","STREAM","WCRO","Blue Ridge","Above Rt. 18 Bridge near campsite",2,"AW","AMBNT",37.60083333,-80.21861111,2,"Mid Atlantic","James River Basin","UPPER JAMES",2080201,"Upper James","Mill Branch-Potts Creek",20802010403,"Potts Creek-Mill Branch","JU-D","JU18",NA
"2-PRB000.53","BIOMON","STREAM","SCRO","Blue Ridge","Plain Run Br @ Rte 627",2,"RB","AMBNT",37.3746,-78.792,2,"Mid Atlantic","James River Basin","APPOMATTOX",2080207,"Appomattox","Wolf Creek-Appomattox River",20802070201,"Appomattox River-Wolf Creek","JA-B","JA01",NA
"2-PTR007.37","SSTUDY","STREAM","WCRO","Blue Ridge","At Elmore Trail off USFS Rd. 184",2,"RB","AMBNT",37.60940833,-79.91268056,2,"Mid Atlantic","James River Basin","UPPER JAMES",2080201,"Upper James","Patterson Creek",20802011204,"Patterson Creek","JU-L","JU49","USFS6579"
"2-PTR008.43","SSTUDY","STREAM","WCRO","Blue Ridge","At Helms Trail off USFS Rd 184",2,"RB","AMBNT",37.60339167,-79.92656667,2,"Mid Atlantic","James River Basin","UPPER JAMES",2080201,"Upper James","Patterson Creek",20802011204,"Patterson Creek","JU-L","JU49","USFS 6580"
"2-PUM000.29","AWTSHD","STREAM","SCRO","Blue Ridge","Plum Cr @ rt 651 dwns of conf  w/ Harris",2,"AW","AMBNT",37.33694444,-78.52416667,2,"Mid Atlantic","James River Basin","APPOMATTOX",2080207,"Appomattox","Ducker Creek-Appomattox River",20802070205,"Appomattox River-Ducker Creek","JA-B","JA05",NA
"2-RBT000.59","BIOMON","STREAM","SCRO","Blue Ridge","Roberts Creek @ Forest Road 315",2,"RB","AMBNT",37.71602778,-79.29619444,2,"Mid Atlantic","James River Basin","MIDDLE JAMES-BUFFALO",2080203,"Middle James Buffalo","Lynchburg Reservoir-Pedlar River",20802030201,"Pedlar River-Lynchburg Reservoir","JM-B","JM04",NA
"2-RED000.16","SSTUDY","STREAM","WCRO","Blue Ridge","OFF ROUTE 501 - BEDFORD COUNTY",2,"AW","AMBNT",37.52388889,-79.35166667,2,"Mid Atlantic","James River Basin","MIDDLE JAMES-BUFFALO",2080203,"Middle James Buffalo","Reed Creek",20802030102,"Reed Creek","JM-A","JM02",NA
"2-RED003.65","APROB","STREAM","WCRO","Blue Ridge","Downstream of Rt. 637 Crossing",2,"FP","AMBNT",37.50894167,-79.38351389,2,"Mid Atlantic","James River Basin","MIDDLE JAMES-BUFFALO",2080203,"Middle James Buffalo","Reed Creek",20802030102,"Reed Creek","JM-A","JM02","VAEQ99-489"
"2-RED008.96","BIOMON","STREAM","WCRO","Blue Ridge","Upstream of Rt. 640",2,"RB","AMBNT",37.49856111,-79.44796111,2,"Mid Atlantic","James River Basin","UPPER ROANOKE",2080203,"Middle James Buffalo","Reed Creek",20802030102,"Reed Creek","JM-A","JM02",NA
"2-RGH000.35","AWTSHD","STREAM","SCRO","Blue Ridge","Rt. 627 bridge",2,"RB","AMBNT",37.33583333,-78.69611111,2,"Mid Atlantic","James River Basin","APPOMATTOX",2080207,"Appomattox","Suanee Creek-Appomattox River",20802070202,"Appomattox River-Suanee Creek","JA-B","JA02",NA
"2-RKI003.40","SSTUDY","STREAM","SCRO","Blue Ridge","RT. 723 BRIDGE - BUCKINGHAM COUNTY",2,"AW","AMBNT",37.73427778,-78.55547222,2,"Mid Atlantic","James River Basin","MIDDLE JAMES-BUFFALO",2080203,"Middle James Buffalo","Rock Island Creek-James River",20802031102,"James River-Rock Island Creek","JM-K","JM43",NA
"2-RLD000.48","AWTSHD","STREAM","SCRO","Blue Ridge","Reynolds Creek @ Rt. 615 Bridge",2,"RB","AMBNT",37.60916667,-78.21166667,2,"Mid Atlantic","James River Basin","MIDDLE JAMES-WILLIS",2080205,"Middle James Willis","Trice Lake-Willis River",20802050303,"Willis River-Trice Lake","JM-R","JM70",NA
"2-RND004.39","AWTSHD","STREAM","SCRO","Blue Ridge","Randolph Creek @ Rt. 717",2,"IM","AMBNT",37.63083333,-78.28166667,2,"Mid Atlantic","James River Basin","MIDDLE JAMES-WILLIS",2080205,"Middle James Willis","Randolph Creek",20802050302,"Randolph Creek","JM-R","JM69",NA
"2-RTD003.08","BIOMON","STREAM","SCRO","Blue Ridge","BELOW AMHERST STP OUTFALL - AMHERST - CO",10120,"TM","AMBNT",37.58194444,-79.0275,2,"Mid Atlantic","James River Basin","MIDDLE JAMES-BUFFALO",2080203,"Middle James Buffalo","Rutledge Creek",20802030603,"Rutledge Creek","JM-F","JM30",NA
"2-RTD003.30","SSTUDY","STREAM","SCRO","Blue Ridge","ABOVE AMHERST STP OUTFALL - AMHERST - CO",10120,"TM","AMBNT",37.58388889,-79.03083333,2,"Mid Atlantic","James River Basin","MIDDLE JAMES-BUFFALO",2080203,"Middle James Buffalo","Rutledge Creek",20802030603,"Rutledge Creek","JM-F","JM30",NA
"2-RTD007.61","TMDL","STREAM","SCRO","Blue Ridge","Rutledge Creek at Sweetbriar entrance",10120,"TM","AMBNT",37.553,-79.072,2,"Mid Atlantic","James River Basin","MIDDLE JAMES-BUFFALO",2080203,"Middle James Buffalo","Rutledge Creek",20802030603,"Rutledge Creek","JM-F","JM30",NA
"2-SCM000.23","SSTUDY","STREAM","SCRO","Blue Ridge","SYCAMORE CREEK, RT. 601 BRIDGE",2,"RB","AMBNT",37.67861111,-78.66583333,2,"Mid Atlantic","James River Basin","MIDDLE JAMES-BUFFALO",2080203,"Middle James Buffalo","Sycamore Creek-James River",20802030804,"James River-Sycamore Creek","JM-H","JM35",NA
"2-SDY003.00","AWTSHD","STREAM","SCRO","Blue Ridge","RT. 460 BRIDGE (NORTH LANE)",2,"AW","AMBNT",37.27583333,-78.32166667,2,"Mid Atlantic","James River Basin","APPOMATTOX",2080207,"Appomattox","Sandy River",20802070305,"Bush River-Sandy River","JA-C","JA14",NA
"2-SDY004.27","AWTSHD","RESERV","SCRO","Blue Ridge","SANDY RIVER, RESERVOIR, NEAR DAM",2,"RL","AMBNT",37.25888889,-78.31777778,2,"Mid Atlantic","James River Basin","APPOMATTOX",2080207,"Appomattox","Sandy River",20802070305,"Bush River-Sandy River","JA-C","JA14",NA
"2-SDY005.85","AWTSHD","RESERV","SCRO","Blue Ridge","SANDY RIVER, RESRVOIR, UPPER LAKE STATIO",2,"RL","AMBNT",37.23805556,-78.31638889,2,"Mid Atlantic","James River Basin","APPOMATTOX",2080207,"Appomattox","Sandy River",20802070305,"Bush River-Sandy River","JA-C","JA14",NA
"2-SHS001.00","AWTSHD","RESERV","SCRO","Blue Ridge","STONEHOUSE CREEK RESERVOIR-STA 100 FT FR",2,"RL","AMBNT",37.67277778,-79.12,2,"Mid Atlantic","James River Basin","MIDDLE JAMES-BUFFALO",2080203,"Middle James Buffalo","Stonewall Creek-Buffalo River",20802030602,"Buffalo River-Stonewall Creek","JM-F","JM29",NA
"2-SKG001.04","AWTSHD","STREAM","WCRO","Blue Ridge","LOWER FORD, NEAR GALA - BOTETOURT COUNTY",2,"AW","AMBNT",37.69194444,-79.80138889,2,"Mid Atlantic","James River Basin","UPPER JAMES",2080201,"Upper James","Sinking Creek",20802010902,"Sinking Creek","JU-I","JU38",NA
"2-SLT003.68","ATRND","STREAM","SCRO","Blue Ridge","RT. 676 BRIDGE",2,"TR","AMBNT",37.70266667,-78.37675,2,"Mid Atlantic","James River Basin","MIDDLE JAMES-BUFFALO",2080203,"Middle James Buffalo","Hunts Creek-Slate River",20802031403,"Slate River-Hunts Creek","JM-N","JM57","2-SLT003.88"
"2-SLT014.52","AWTSHD","STREAM","SCRO","Blue Ridge","SLATE R., RT 622",2,"RB","AMBNT",37.64555556,-78.45333333,2,"Mid Atlantic","James River Basin","MIDDLE JAMES-BUFFALO",2080203,"Middle James Buffalo","Sharps Creek-Slate River",20802031402,"Slate River-Sharps Creek","JM-N","JM56",NA
"2-SLT024.72","SSTUDY","STREAM","SCRO","Blue Ridge","Slate River @ Rt. 649",2,"IM","AMBNT",37.5925,-78.53,2,"Mid Atlantic","James River Basin","MIDDLE JAMES-BUFFALO",2080203,"Middle James Buffalo","Horsepen Creek-Slate River",20802031303,"Slate River-Horsepen Creek","JM-M","JM53",NA
"2-SMH005.09","BIOMON","STREAM",NA,"Blue Ridge","Smith Creek along Rt. 606",2,"RB","AMBNT",37.85884722,-79.86570833,2,"Mid Atlantic","James River Basin","UPPER JAMES",2080201,"Upper James","Smith Creek-Jackson River",20802010507,"Jackson River-Smith Creek","JU-E","JU24",NA
"2-SPA001.46","SSTUDY","STREAM","SCRO","Blue Ridge","SPRING CREEK, RT. 700 BRIDGE",2,"IM","AMBNT",37.23277778,-78.52027778,2,"Mid Atlantic","James River Basin","APPOMATTOX",2080207,"Appomattox","Spring Creek",20802070101,"Spring Creek","JA-A","JA06",NA
"2-SSC000.25","AWTSHD","STREAM","WCRO","Blue Ridge","RT. 603 BRIDGE AT EARLEHURST",2,"AW","AMBNT",37.66833333,-80.23694445,2,"Mid Atlantic","James River Basin","UPPER JAMES",2080201,"Upper James","Sweet Springs Creek-Cove Creek",20802010301,"Cove Creek-Sweet Springs Creek","JU-C","JU12",NA
"2-STW001.72","AWTSHD","STREAM","SCRO","Blue Ridge","Stonewall Cr @ rt 605",2,"AW","AMBNT",37.45916667,-78.95833333,2,"Mid Atlantic","James River Basin","MIDDLE JAMES-BUFFALO",2080203,"Middle James Buffalo","Stonewall Creek-James River",20802030402,"James River-Stonewall Creek","JM-D","JM14",NA
"2-STW004.84","APROB","STREAM","SCRO","Blue Ridge","Stonewall Cr just upstream of Rt 611",2,"FP","AMBNT",37.42569444,-78.97408333,2,"Mid Atlantic","James River Basin","MIDDLE JAMES-BUFFALO",2080203,"Middle James Buffalo","Stonewall Creek-James River",20802030402,"James River-Stonewall Creek","JM-D","JM14",NA
"2-SUA001.54","AWTSHD","STREAM","SCRO","Blue Ridge","SUANEE CR., RT 627",2,"RB","AMBNT",37.33444444,-78.66722222,2,"Mid Atlantic","James River Basin","APPOMATTOX",2080207,"Appomattox","Suanee Creek-Appomattox River",20802070202,"Appomattox River-Suanee Creek","JA-B","JA02",NA
"2-SUA003.80","AWTSHD","STREAM","SCRO","Blue Ridge","Suanee Cr @ rt 619",2,"AW","AMBNT",37.31305556,-78.70888889,2,"Mid Atlantic","James River Basin","APPOMATTOX",2080207,"Appomattox","Suanee Creek-Appomattox River",20802070202,"Appomattox River-Suanee Creek","JA-B","JA02",NA
"2-SYL001.26","SSTUDY","STREAM","SCRO","Blue Ridge","RT. 619 BRIDGE",2,"TM","AMBNT",37.32666667,-78.25944444,2,"Mid Atlantic","James River Basin","APPOMATTOX",2080207,"Appomattox","Saylers Creek",20802070401,"Saylers Creek","JA-D","JA15",NA
"2-TBM000.92","AWTSHD","RESERV","SCRO","Blue Ridge","SLATE RIVER DAM #2 SCS IMPOUNDMENT",2,"RL","AMBNT",37.56805556,-78.53972222,2,"Mid Atlantic","James River Basin","MIDDLE JAMES-BUFFALO",2080203,"Middle James Buffalo","Horsepen Creek-Slate River",20802031303,"Slate River-Horsepen Creek","JM-M","JM53",NA
"2-TNR000.25","AWTSHD","STREAM","SCRO","Blue Ridge","Turner Cr @ rt 739 Boxwood Farm Rd",2,"AW","AMBNT",37.59888889,-78.99583333,2,"Mid Atlantic","James River Basin","MIDDLE JAMES-BUFFALO",2080203,"Middle James Buffalo","Stonewall Creek-Buffalo River",20802030602,"Buffalo River-Stonewall Creek","JM-F","JM29",NA
"2-TPN003.59","SSTUDY","STREAM","SCRO","Blue Ridge","TURPIN CR @ RT 631",2,"FP","AMBNT",37.5925,-78.48083333,2,"Mid Atlantic","James River Basin","MIDDLE JAMES-BUFFALO",2080203,"Middle James Buffalo","Joshua Creek-Slate River",20802031401,"Slate River-Joshua Creek","JM-N","JM55",NA
"2-TRH000.40","AWTSHD","RESERV","SCRO","Blue Ridge","THRASHERS CREEK RESERVOIR-STA 100' FROM",2,"RL","AMBNT",37.66944445,-79.1375,2,"Mid Atlantic","James River Basin","MIDDLE JAMES-BUFFALO",2080203,"Middle James Buffalo","North Fork Buffalo River-Buffalo River",20802030601,"Buffalo River-North Fork Buffalo River","JM-F","JM28",NA
"2-TTC001.14","SSTUDY","STREAM","WCRO","Blue Ridge","Rt. 620 near AT",2,"RB","AMBNT",37.39020556,-80.19619722,2,"Mid Atlantic","James River Basin","UPPER JAMES",2080201,"Upper James","Trout Creek-Craig Creek",20802011001,"Craig Creek-Trout Creek","JU-J","JU41",NA
"2-VNS000.31","AWTSHD","STREAM","SCRO","Blue Ridge","Rt. 609 Bridge near conf. w/ Appomattox",2,"RB","AMBNT",37.35166667,-78.56027778,2,"Mid Atlantic","James River Basin","APPOMATTOX",2080207,"Appomattox","Vaughans Creek",20802070204,"Vaughans Creek","JA-B","JA04",NA
"2-VNS003.75","AWTSHD","STREAM","SCRO","Blue Ridge","Vaughans Cr @ rt 626",2,"AW","AMBNT",37.35222222,-78.59916667,2,"Mid Atlantic","James River Basin","APPOMATTOX",2080207,"Appomattox","Vaughans Creek",20802070204,"Vaughans Creek","JA-B","JA04",NA
"2-VNS007.73","AWTSHD","STREAM","SCRO","Blue Ridge","Vaughans Cr @ rt 627 dwnstr side",2,"AW","AMBNT",37.31388889,-78.63333333,2,"Mid Atlantic","James River Basin","APPOMATTOX",2080207,"Appomattox","Vaughans Creek",20802070204,"Vaughans Creek","JA-B","JA04",NA
"2-WDY003.04","APROB","STREAM","SCRO","Blue Ridge","WOODY CREEK, RT. 607 BRIDGE",7114,"TM","AMBNT",37.17222222,-78.00972222,2,"Mid Atlantic","James River Basin","APPOMATTOX",2080207,"Appomattox","Little Creek-Deep Creek",20802070701,"Deep Creek-Little Creek","JA-G","JA29",NA
"2-WIC000.40","AWTSHD","STREAM","SCRO","Blue Ridge","ROUTE 605 BRIDGE, NEAR RIVERVILLE-APPOMA",2,"AW","AMBNT",37.50666667,-78.89777778,2,"Mid Atlantic","James River Basin","MIDDLE JAMES-BUFFALO",2080203,"Middle James Buffalo","Wreck Island Creek",20802030404,"Wreck Island Creek","JM-D","JM16",NA
"2-WIC005.69","BIOMON","STREAM","SCRO","Blue Ridge","Wreck Island Ck @ Rte 683",2,"RB","AMBNT",37.4747,-78.8972,2,"Mid Atlantic","James River Basin","MIDDLE JAMES-BUFFALO",2080203,"Middle James Buffalo","Wreck Island Creek",20802030404,"Wreck Island Creek","JM-D","JM16",NA
"2-WKF000.72","AWTSHD","STREAM","SCRO","Blue Ridge","Walker Ford Cr @ Rt 622",2,"AW","AMBNT",37.50777778,-78.93666667,2,"Mid Atlantic","James River Basin","MIDDLE JAMES-BUFFALO",2080203,"Middle James Buffalo","Christian Mill Creek-James River",20802030403,"James River-Christian Mill Creek","JM-D","JM15",NA
"2-WLN000.36","AWTSHD","STREAM","WCRO","Blue Ridge","Rt. 632 Br. (Golf Course View)",2,"AW","AMBNT",37.81888889,-79.79777778,2,"Mid Atlantic","James River Basin","UPPER JAMES",2080201,"Upper James","Wilson Creek",20802010506,"Wilson Creek","JU-E","JU23",NA
"2-WLS004.27","ATRND","STREAM","SCRO","Blue Ridge","WILLIS R @ Rt. 605 BRIDGE",2,"TR","AMBNT",37.68833333,-78.14361111,2,"Mid Atlantic","James River Basin","MIDDLE JAMES-WILLIS",2080205,"Middle James Willis","Trice Lake-Willis River",20802050303,"Willis River-Trice Lake","JM-R","JM70",NA
"2-WLS021.48","AWTSHD","STREAM","SCRO","Blue Ridge","Willis R @ rt 696",2,"AW","AMBNT",37.59111111,-78.25833333,2,"Mid Atlantic","James River Basin","MIDDLE JAMES-WILLIS",2080205,"Middle James Willis","Bonbrook Creek-Willis River",20802050301,"Willis River-Bonbrook Creek","JM-R","JM68",NA
"2-WLS023.10","APROB","STREAM","SCRO","Blue Ridge","Willis R 0.1 mile upstr of Buck & Game",2,"FP","AMBNT",37.57308333,-78.26808333,2,"Mid Atlantic","James River Basin","MIDDLE JAMES-WILLIS",2080205,"Middle James Willis","Bonbrook Creek-Willis River",20802050301,"Willis River-Bonbrook Creek","JM-R","JM68",NA
"2-WLS025.32","ATRND","STREAM","SCRO","Blue Ridge","WILLIS R @ Rt. 622 BRIDGE",2,"TR","AMBNT",37.55472222,-78.28888889,2,"Mid Atlantic","James River Basin","MIDDLE JAMES-WILLIS",2080205,"Middle James Willis","Bonbrook Creek-Willis River",20802050301,"Willis River-Bonbrook Creek","JM-R","JM68",NA
"2-WLS038.90","AWTSHD","STREAM","SCRO","Blue Ridge","Willis R @ rt 634 salem church rd",2,"AW","AMBNT",37.44,-78.36083333,2,"Mid Atlantic","James River Basin","MIDDLE JAMES-WILLIS",2080205,"Middle James Willis","Buffalo Creek-Willis River",20802050204,"Willis River-Buffalo Creek","JM-Q","JM66",NA
"2-WLS042.78","ATRND","STREAM","SCRO","Blue Ridge","Willis River @ rt 600",2,"TR","AMBNT",37.43583333,-78.40833333,2,"Mid Atlantic","James River Basin","MIDDLE JAMES-WILLIS",2080205,"Middle James Willis","Whispering Creek-Willis River",20802050202,"Willis River-Whispering Creek","JM-Q","JM64",NA
"2-WLS055.54","SSTUDY","STREAM","SCRO","Blue Ridge","Willis River @ Rt. 637",2,"AW","AMBNT",37.44111111,-78.5375,2,"Mid Atlantic","James River Basin","MIDDLE JAMES-WILLIS",2080205,"Middle James Willis","Bishop Creek-Willis River",20802050201,"Willis River-Bishop Creek","JM-Q","JM63",NA
"2-WLS057.34","SSTUDY","STREAM","SCRO","Blue Ridge","Willis River @ Rt. 638",2,"RB","AMBNT",37.43555556,-78.56666667,2,"Mid Atlantic","James River Basin","MIDDLE JAMES-WILLIS",2080205,"Middle James Willis","Bishop Creek-Willis River",20802050201,"Willis River-Bishop Creek","JM-Q","JM63",NA
"2-WSP001.95","AWTSHD","STREAM","SCRO","Blue Ridge","Whispering Cr @ rt 654",2,"AW","AMBNT",37.45777778,-78.39666667,2,"Mid Atlantic","James River Basin","MIDDLE JAMES-WILLIS",2080205,"Middle James Willis","Whispering Creek-Willis River",20802050202,"Willis River-Whispering Creek","JM-Q","JM64",NA
"2-WTN002.08","APROB","STREAM","WCRO","Blue Ridge","Walton Fork DS of Rt 658",2,"FP","AMBNT",37.615088,-78.552507,2,"Mid Atlantic","James River Basin","MIDDLE JAMES-BUFFALO",2080203,"Middle James Buffalo","Ripley Creek-Walton Fork",20802031304,"Walton Fork-Ripley Creek","JM-M","JM54",NA
"2-WTN002.50","SSTUDY","STREAM","SCRO","Blue Ridge","Walton Fork @ Rt 658",2,"RB","AMBNT",37.61444445,-78.55472222,2,"Mid Atlantic","James River Basin","MIDDLE JAMES-BUFFALO",2080203,"Middle James Buffalo","Ripley Creek-Walton Fork",20802031304,"Walton Fork-Ripley Creek","JM-M","JM54",NA
"2-XEP000.44","AWTSHD","RESERV","SCRO","Blue Ridge","GOODWIN LAKE-NEAR DAM-PRINCE EDWARD CO",2,"RL","AMBNT",37.17416667,-78.28138889,2,"Mid Atlantic","James River Basin","APPOMATTOX",2080207,"Appomattox","Sandy River",20802070305,"Bush River-Sandy River","JA-C","JA14",NA
"2-XFT000.62","TMDL","STREAM","PRO","Blue Ridge","West UT to Winningham Cr at Rt. 632",7114,"TM","AMBNT",37.16588889,-78.09747222,2,"Mid Atlantic","James River Basin","APPOMATTOX",2080207,"Appomattox","Little Creek-Deep Creek",20802070701,"Deep Creek-Little Creek","JA-G","JA29",NA
"2-XRA000.47","APROB","STREAM","WCRO","Blue Ridge","Upstream of Rt. 617",NA,"FP","AMBNT",37.5532,-80.11986667,2,"Mid Atlantic","James River Basin","UPPER JAMES",2080201,"Upper James","Barbours Creek",20802011202,"Barbours Creek","JU-L","JU47","VARS11-225"
"2-XSP000.97","APROB","STREAM","WCRO","Blue Ridge","North of Longdale Furnace",2,"FP","AMBNT",37.8307,-79.6771,2,"Mid Atlantic","James River Basin","UPPER JAMES",2080201,"Upper James","Simpson Creek-Cowpasture River",20802010803,"Cowpasture River-Simpson Creek","JU-H","JU36","VARS11-124"
"2-XUL000.10","BIOMON","STREAM","WCRO","Blue Ridge","Upstream of Rt. 11",2,"RB","AMBNT",37.4606,-79.81906944,2,"Mid Atlantic","James River Basin","UPPER JAMES",2080201,"Upper James","Mill Creek-Looney Creek",20802011403,"Looney Creek-Mill Creek","JU-N","JU55",NA
"2-XWQ000.02","BIOMON","STREAM","WCRO","Blue Ridge","Above Confluence with Reed Creek",2,"RB","AMBNT",37.50831667,-79.38367222,2,"Mid Atlantic","James River Basin","MIDDLE JAMES-BUFFALO",2080203,"Middle James Buffalo","Reed Creek",20802030102,"Reed Creek","JM-A","JM02",NA
"2-XZN001.15","TMDL","STREAM","PRO","Blue Ridge","East UT to Winningham Cr at Rt. 632",7114,"TM","AMBNT",37.16305556,-78.08897222,2,"Mid Atlantic","James River Basin","APPOMATTOX",2080207,"Appomattox","Little Creek-Deep Creek",20802070701,"Deep Creek-Little Creek","JA-G","JA29",NA
"2-XZQ000.76","SSTUDY","STREAM","WCRO","Blue Ridge","60 m upstr of Enterprise Rd, beyond gate",2,"RB","AMBNT",37.47605,-80.11728056,2,"Mid Atlantic","James River Basin","UPPER JAMES",2080201,"Upper James","Broad Run-Craig Creek",20802011003,"Craig Creek-Broad Run","JU-J","JU43",NA
"2-YST000.64","APROB","STREAM","WCRO","Blue Ridge","Off Jennings Cr Rd 9Rt 614)",NA,"FP","AMBNT",37.50669444,-79.629,2,"Mid Atlantic","James River Basin","UPPER JAMES",2080201,"Upper James","North Creek-Jennings Creek",20802011502,"Jennings Creek-North Creek","JU-O","JU57","VARS11-305"
"2-ZAE000.24","SSTUDY","STREAM","WCRO","Blue Ridge","Along trail to Morning Knob",2,"RB","AMBNT",37.66944445,-80.08472222,2,"Mid Atlantic","James River Basin","UPPER JAMES",2080201,"Upper James","Cast Steel Run-Potts Creek",20802010404,"Potts Creek-Cast Steel Run","JU-D","JU19",NA
"2BACH000.09","AWTSHD","STREAM","SCRO","Blue Ridge","Route 609",2,"AW","AMBNT",37.39305556,-79.04,2,"Mid Atlantic","James River Basin","MIDDLE JAMES-BUFFALO",2080203,"Middle James Buffalo","Archer Creek-James River",20802030401,"James River-Beck Creek","JM-D","JM13",NA
"2BANC000.09","AWTSHD","STREAM","SCRO","Blue Ridge","Rte 622",2,"AW","AMBNT",37.546,-78.869,2,"Mid Atlantic","James River Basin","MIDDLE JAMES-BUFFALO",2080203,"Middle James Buffalo","Allens Creek-James River",20802030405,"James River-Allens Creek","JM-D","JM17",NA
"2BBKF002.05","BIOMON","STREAM","SCRO","Blue Ridge","Blackfoot Creek @ Rte 665",2,"RB","AMBNT",37.44177778,-78.87219444,2,"Mid Atlantic","James River Basin","MIDDLE JAMES-BUFFALO",2080203,"Middle James Buffalo","Wreck Island Creek",20802030404,"Wreck Island Creek","JM-D","JM16",NA
"2BBYN000.59","BIOMON","STREAM","SCRO","Blue Ridge","upstream of Rte 633",2,"RB","AMBNT",37.53966667,-78.55313889,2,"Mid Atlantic","James River Basin","MIDDLE JAMES-BUFFALO",2080203,"Middle James Buffalo","Horsepen Creek-Slate River",20802031303,"Slate River-Horsepen Creek","JM-M","JM53",NA
"2BECH000.53","BIOMON","STREAM","SCRO","Blue Ridge","upstream of FR 39",2,"RB","AMBNT",37.661,-79.29422222,2,"Mid Atlantic","James River Basin","MIDDLE JAMES-BUFFALO",2080203,"Middle James Buffalo","Browns Creek-Pedlar River",20802030202,"Pedlar River-Browns Creek","JM-B","JM05",NA
"2BFSP001.09","APROB","STREAM",NA,"Blue Ridge","Fishpond Ck DS of state forest US of 617",2,"FP","AMBNT",37.366806,-78.654028,2,"Mid Atlantic","James River Basin","APPOMATTOX",2080207,"Appomattox","Fishpond Creek-Appomattox River",20802070203,"Appomattox River-Fishpond Creek","JA-B","JA03",NA
"2BFWN000.66","BIOMON","STREAM","SCRO","Blue Ridge","Fawn Ck @ Rte 130",2,"RB","AMBNT",37.47619722,-79.15359722,2,"Mid Atlantic","James River Basin","MIDDLE JAMES-BUFFALO",2080203,"Middle James Buffalo","Harris Creek",20802030302,"Harris Creek","JM-C","JM08",NA
"2BHAZ008.29","APROB","STREAM","SCRO","Blue Ridge","Route 675 (Winesap Road)",2,"PA","AMBNT",37.4934,-79.15263889,2,"Mid Atlantic","James River Basin","MIDDLE JAMES-BUFFALO",2080203,"Middle James Buffalo","Harris Creek",20802030302,"Harris Creek","JM-C","JM08",NA
"2BHAZ008.51","APROB","STREAM","SCRO","Blue Ridge","Harris Cr above rt 675 (winesap Rd)",2,"FP","AMBNT",37.49619444,-79.1515,2,"Mid Atlantic","James River Basin","MIDDLE JAMES-BUFFALO",2080203,"Middle James Buffalo","Harris Creek",20802030302,"Harris Creek","JM-C","JM08",NA
"2BHOX000.62","BIOMON","STREAM","SCRO","Blue Ridge","Rte. 638 US of Bryant Creek confluence",2,"RB","AMBNT",37.54330556,-78.56194444,2,"Mid Atlantic","James River Basin","MIDDLE JAMES-BUFFALO",2080203,"Middle James Buffalo","Horsepen Creek-Slate River",20802031303,"Slate River-Horsepen Creek","JM-M","JM53",NA
"2BHOY002.92","BIOMON","STREAM","SCRO","Blue Ridge","Horseley Ck @ Rte 642",2,"RB","AMBNT",37.59262778,-79.23449722,2,"Mid Atlantic","James River Basin","MIDDLE JAMES-BUFFALO",2080203,"Middle James Buffalo","Horsley Creek-Pedlar River",20802030203,"Pedlar River-Horsley Creek","JM-B","JM06",NA
"2BJMS163.69","APROB","STREAM","PRO","Blue Ridge","2.81 miles downstream rt. 690 Columbia",2,"FP","AMBNT",37.72785,-78.12131667,2,"Mid Atlantic","James River Basin","MIDDLE JAMES-WILLIS",2080205,"Middle James Willis","Hooper Rock Creek-James River",20802050401,"James River-Hooper Rock Creek","JM-S","JM62","VA-1055"
"2BJMS196.16","APROB","STREAM","SCRO","Blue Ridge","James River near Warren",2,"FP","AMBNT",37.75877778,-78.56858333,2,"Mid Atlantic","James River Basin","MIDDLE JAMES-BUFFALO",2080203,"Middle James Buffalo","Ballinger Creek-James River",20802031101,"James River-Ballinger Creek","JM-K","JM42",NA
"2BJMS220.34","APROB","STREAM",NA,"Blue Ridge","James R near James R State Park",2,"FP","AMBNT",37.633889,-78.815583,2,"Mid Atlantic","James River Basin","MIDDLE JAMES-BUFFALO",2080203,"Middle James Buffalo","Alabama Creek-James River",20802030802,"James River-Alabama Creek","JM-H","JM20",NA
"2BJMS221.84","SSTUDY","STREAM","SCRO","Blue Ridge","Main boat ramp at James River State Park",2,"PA","AMBNT",37.61518889,-78.81733056,2,"Mid Atlantic","James River Basin","MIDDLE JAMES-BUFFALO",2080203,"Middle James Buffalo","Alabama Creek-James River",20802030802,"James River-Alabama Creek","JM-H","JM20",NA
"2BLIR007.16","APROB","STREAM","VRO","Blue Ridge","100 meters downstream trail crossing",2,"FP","AMBNT",37.7645,-79.1644,2,"Mid Atlantic","James River Basin","MIDDLE JAMES-BUFFALO",2080203,"Middle James Buffalo","Little Piney River-Piney River",20802030505,"Piney River-Little Piney River","JM-E","JM25","VARS11-105"
"2BPRS001.90","APROB","STREAM","VRO","Blue Ridge","1 km downstream Greasy Spring Branch",2,"PA","AMBNT",37.7908,-79.1456,2,"Mid Atlantic","James River Basin","MIDDLE JAMES-BUFFALO",2080203,"Middle James Buffalo","Little Piney River-Piney River",20802030505,"Piney River-Little Piney River","JM-E","JM25","VARS11-287"
"2BXAD000.07","APROB","STREAM","SCRO","Blue Ridge","UT Little Georgia Cr @ Hwy 20",2,"FP","AMBNT",37.74577778,-78.49086111,2,"Mid Atlantic","James River Basin","MIDDLE JAMES-BUFFALO",2080203,"Middle James Buffalo","Little George Creek-James River",20802031104,"James River-Little George Creek","JM-K","JM45",NA
"2BXZF000.38","BIOMON","STREAM","SCRO","Blue Ridge","UT BRYANT AT RTE 665",2,"RB","AMBNT",37.53319444,-78.52244444,2,"Mid Atlantic","James River Basin","MIDDLE JAMES-BUFFALO",2080203,"Middle James Buffalo","Horsepen Creek-Slate River",20802031303,"Slate River-Horsepen Creek","JM-M","JM53",NA
"2DAPP108.43","APROB","STREAM",NA,"Blue Ridge","App R @ Bad Luck Br DS of Farmville",2,"FP","AMBNT",37.309,-78.366361,2,"Mid Atlantic","James River Basin","APPOMATTOX",2080207,"Appomattox","Bad Luck Branch-Appomattox River",20802070206,"Appomattox River-Bad Luck Branch","JA-B","JA09",NA
"2DAPP112.19","APROB","STREAM","SCRO","Blue Ridge","W of 45, N of Hwy 460",2,"FP","AMBNT",37.31258333,-78.40177778,2,"Mid Atlantic","James River Basin","APPOMATTOX",2080207,"Appomattox","Ducker Creek-Appomattox River",20802070205,"Appomattox River-Ducker Creek","JA-B","JA05",NA
"2DBRI007.10","BIOMON","STREAM","SCRO","Blue Ridge","Briery Creek @ Rte 655",2,"RB","AMBNT",37.22966667,-78.42111111,2,"Mid Atlantic","James River Basin","APPOMATTOX",2080207,"Appomattox","Briery Creek",20802070301,"Briery Creek","JA-C","JA10",NA
"2DMRB001.89","BIOMON","STREAM",NA,"Blue Ridge","Morris Br @ rt 664",2,"RB","AMBNT",37.18699722,-78.5978,2,"Mid Atlantic","James River Basin","APPOMATTOX",2080207,"Appomattox","Little Buffalo Creek-Buffalo Creek",20802070102,"Buffalo Creek-Little Buffalo Creek","JA-A","JA07",NA
"2DRCE002.44","BIOMON","STREAM","SCRO","Blue Ridge","Rice Cr @ rte 630",2,"RB","AMBNT",37.17955556,-78.41819444,2,"Mid Atlantic","James River Basin","APPOMATTOX",2080207,"Appomattox","Evans Creek-Bush River",20802070302,"Bush River-Evans Creek","JA-C","JA11",NA
"2DSDY008.80","BIOMON","STREAM","SCRO","Blue Ridge","upstream of Rte 612",2,"RB","AMBNT",37.20291667,-78.30141667,2,"Mid Atlantic","James River Basin","APPOMATTOX",2080207,"Appomattox","Sandy River",20802070305,"Bush River-Sandy River","JA-C","JA14",NA
"2DXAH000.79","APROB","STREAM","SCRO","Blue Ridge","UT Big Guinea West of 639",2,"FP","AMBNT",37.43319444,-78.28238889,2,"Mid Atlantic","James River Basin","APPOMATTOX",2080207,"Appomattox","Big Guinea Creek",20802070404,"Big Guinea Creek","JA-D","JA18",NA
"4AAAR004.72","AWTSHD","STREAM","SCRO","Blue Ridge","RT. 601 BRIDGE MECKLENBURG/HALIFAX CO",2,"TM","AMBNT",36.62833333,-78.71,3,"South Atlantic-Gulf","Roanoke River Basin","LOWER DAN",3010104,"Lower Dan","Aarons Creek-John H Kerr Reservoir",30101040702,"Aarons Creek-John H Kerr Reservoir","RD-S","RD75",NA
"4AAAR006.20","AWTSHD","STREAM","SCRO","Blue Ridge","Aarons Creek @ Rt. 602",2,"AW","AMBNT",36.61083333,-78.71111111,3,"South Atlantic-Gulf","Roanoke River Basin","LOWER DAN",3010104,"Lower Dan","Aarons Creek-John H Kerr Reservoir",30101040702,"Aarons Creek-John H Kerr Reservoir","RD-S","RD75",NA
"4AACC002.60","SSTUDY","STREAM","SCRO","Blue Ridge","STA 1 - RT. 654 BRIDGE",2,"RB","AMBNT",37.03222222,-78.56416667,3,"South Atlantic-Gulf","Roanoke River Basin","MIDDLE ROANOKE",3010102,"Middle Roanoke","Ash Camp Creek-Roanoke Creek",30101020502,"Roanoke Creek-Ash Camp Creek","RU-T","RU82",NA
"4AACC004.87","SSTUDY","STREAM","SCRO","Blue Ridge","Ash Camp Cr @Private Rd 0.6 mi from Rt40",2,"RB","AMBNT",37.03444444,-78.53166667,3,"South Atlantic-Gulf","Roanoke River Basin","MIDDLE ROANOKE",3010102,"Middle Roanoke","Ash Camp Creek-Roanoke Creek",30101020502,"Roanoke Creek-Ash Camp Creek","RU-T","RU82",NA
"4AALL001.13","AWTSHD","STREAM","SCRO","Blue Ridge","Allen Cr @ Hermosa Road",2,"AW","AMBNT",36.94416667,-79.13916667,3,"South Atlantic-Gulf","Roanoke River Basin","BANISTER",3010105,"Banister","Allen Creek-Banister River",30101050205,"Banister River-Allen Creek","RD-N","RD60",NA
"4AALN009.12","ATRND","STREAM","SCRO","Blue Ridge","RT. 678 BRIDGE",2,"TR","AMBNT",36.66611111,-78.31805556,3,"South Atlantic-Gulf","Roanoke River Basin","ROANOKE RAPIDS",3010106,"Roanoke Rapids","Cox Creek-Allen Creek",30101060102,"Allen Creek-Cox Creek","RL-D","RL11",NA
"4AALN016.38","AWTSHD","STREAM","SCRO","Blue Ridge","ALLEN CREEK, RT. 660 BRIDGE",2,"TM","AMBNT",36.70666667,-78.36916667,3,"South Atlantic-Gulf","Roanoke River Basin","ROANOKE RAPIDS",3010106,"Roanoke Rapids","Layton Creek-Allen Creek",30101060101,"Allen Creek-Layton Creek","RL-D","RL10",NA
"4AALN020.60","BIOMON","STREAM","SCRO","Blue Ridge","ALLEN CREEK, RT. 671 BRIDGE",2,"RB","AMBNT",36.74824444,-78.37723889,3,"South Atlantic-Gulf","Roanoke River Basin","ROANOKE RAPIDS",3010106,"Roanoke Rapids","Layton Creek-Allen Creek",30101060101,"Allen Creek-Layton Creek","RL-D","RL10",NA
"4AATD002.66","AWTSHD","STREAM","SCRO","Blue Ridge","Armistead Br @ Rt. 627",2,"RB","AMBNT",36.92849722,-78.9133,3,"South Atlantic-Gulf","Roanoke River Basin","MIDDLE ROANOKE",3010102,"Middle Roanoke","Catawba Creek",30101020402,"Catawba Creek","RU-S","RU73",NA
"4ABAA000.03","AWTSHD","STREAM","WCRO","Blue Ridge","END RT. 618 CONFL. WITH ROANOKE RIVER",2,"AW","AMBNT",37.22583333,-79.84833333,3,"South Atlantic-Gulf","Roanoke River Basin","UPPER ROANOKE",3010101,"Upper Roanoke","Back Creek",30101010405,"Back Creek","RU-D","RU15",NA
"4ABAA000.30","BIOMON","STREAM","WCRO","Blue Ridge","Off Rutrough Road",2,"RB","AMBNT",37.22676944,-79.85,3,"South Atlantic-Gulf","Roanoke River Basin","UPPER ROANOKE",3010101,"Upper Roanoke","Back Creek",30101010405,"Back Creek","RU-D","RU15",NA
"4ABAA008.67","SSTUDY","STREAM","WCRO","Blue Ridge","Rt. 666, uppermost Bandy Rd Bridge",2,"RB","AMBNT",37.18561111,-79.92313889,3,"South Atlantic-Gulf","Roanoke River Basin","UPPER ROANOKE",3010101,"Upper Roanoke","Back Creek",30101010405,"Back Creek","RU-D","RU15",NA
"4ABAA017.14","SSTUDY","STREAM","WCRO","Blue Ridge","Rt. 613 near Merriman Soccer Complex",2,"RB","AMBNT",37.19333333,-80.00016667,3,"South Atlantic-Gulf","Roanoke River Basin","UPPER ROANOKE",3010101,"Upper Roanoke","Back Creek",30101010405,"Back Creek","RU-D","RU15",NA
"4ABAA023.07","SSTUDY","STREAM","WCRO","Blue Ridge","Below Old Mill Plantation",2,"RB","AMBNT",37.19806111,-80.07778056,3,"South Atlantic-Gulf","Roanoke River Basin","UPPER ROANOKE",3010101,"Upper Roanoke","Back Creek",30101010405,"Back Creek","RU-D","RU15",NA
"4ABAN005.58","ATRND","STREAM","SCRO","Blue Ridge","ROUTE 360 BRIDGE NE OF S BOSTON",2,"TR","AMBNT",36.74555556,-78.84194444,3,"South Atlantic-Gulf","Roanoke River Basin","BANISTER",3010105,"Banister","Winn Creek-Banister River",30101050403,"Banister River-John H Kerr Reservoir-Winn Creek","RD-P","RD67",NA
"4ABAN012.46","AWTSHD","RESERV","SCRO","Blue Ridge","BANISTER LAKE(HALIFAX RESERVOIR)STA #1",2,"RL","AMBNT",36.77972222,-78.92611111,3,"South Atlantic-Gulf","Roanoke River Basin","BANISTER",3010105,"Banister","Polecat Creek-Banister River",30101050401,"Banister River-Polecat Creek","RD-P","RD65",NA
"4ABAN039.76","ATRND","STREAM","SCRO","Blue Ridge","Banister R @Rt 640 BRIDGE, Riceville Rd",2,"TR","AMBNT",36.91138889,-79.18305556,3,"South Atlantic-Gulf","Roanoke River Basin","BANISTER",3010105,"Banister","Allen Creek-Banister River",30101050205,"Banister River-Allen Creek","RD-N","RD60",NA
"4ABAN053.77","SSTUDY","STREAM","SCRO","Blue Ridge","Route 57, Halifax Road",2,"PA","AMBNT",36.82722222,-79.31944444,3,"South Atlantic-Gulf","Roanoke River Basin","BANISTER",3010105,"Banister","Shockoe Creek-Banister River",30101050203,"Banister River-Shockoe Creek","RD-N","RD58",NA
"4ABAN057.85","APROB","STREAM","SCRO","Blue Ridge","Banister 0.2 miles DS of Cherrystne Ck",2,"FP","AMBNT",36.80458333,-79.33558333,3,"South Atlantic-Gulf","Roanoke River Basin","BANISTER",3010105,"Banister","Shockoe Creek-Banister River",30101050203,"Banister River-Shockoe Creek","RD-N","RD58",NA
"4ABAN070.20","AWTSHD","STREAM","SCRO","Blue Ridge","Banister River @ Rt 703",2,"AW","AMBNT",36.77190555,-79.46223333,3,"South Atlantic-Gulf","Roanoke River Basin","BANISTER",3010105,"Banister","Strawberry Creek-Banister River",30101050101,"Banister River-Strawberry Creek","RD-M","RD52",NA
"4ABAR000.32","BIOMON","STREAM","SCRO","Blue Ridge","Bar Branch @ Rte 662",2,"RB","AMBNT",36.76030556,-79.20194444,3,"South Atlantic-Gulf","Roanoke River Basin","BANISTER",3010105,"Banister","Upper Sandy Creek",30101050301,"Upper Sandy Creek","RD-O","RD63",NA
"4ABAU000.25","TMDL","STREAM","WCRO","Blue Ridge","Off Kohler Road",2,"TM","AMBNT",36.69148055,-79.9067,3,"South Atlantic-Gulf","Roanoke River Basin","UPPER DAN",3010103,"Upper Dan","Beaver Creek-Smith River",30101030801,"Smith River-Beaver Creek","RD-F","RD24",NA
"4ABAU005.34","AWTSHD","RESERV","WCRO","Blue Ridge","MARTINSVILLE RESERVOIR STATION AT DAM -",2,"RL","AMBNT",36.74444444,-79.87527778,3,"South Atlantic-Gulf","Roanoke River Basin","UPPER DAN",3010103,"Upper Dan","Beaver Creek-Smith River",30101030801,"Smith River-Beaver Creek","RD-F","RD24",NA
"4ABAU011.17","APROB","STREAM","WCRO","Blue Ridge","Off Rt. 922 upstream of Rt. 657 crossing",2,"FP","AMBNT",36.78152778,-79.83454722,3,"South Atlantic-Gulf","Roanoke River Basin","UPPER DAN",3010103,"Upper Dan","Beaver Creek-Smith River",30101030801,"Smith River-Beaver Creek","RD-F","RD24","VAEQ99-461"
"4ABCD001.70","AWTSHD","STREAM","SCRO","Blue Ridge","Buckskin Cr @ Rt. 624",2,"AW","AMBNT",36.96111111,-78.8175,3,"South Atlantic-Gulf","Roanoke River Basin","MIDDLE ROANOKE",3010102,"Middle Roanoke","Buckskin Creek-Roanoke River",30101020404,"Roanoke River-Buckskin Creek","RU-S","RU75",NA
"4ABCE001.32","BIOMON","STREAM","WCRO","Blue Ridge","Above Rt. 731 Bridge",2,"TM","AMBNT",37.04836111,-79.95258056,3,"South Atlantic-Gulf","Roanoke River Basin","UPPER ROANOKE",3010101,"Upper Roanoke","Madcap Creek-Blackwater River",30101010503,"Blackwater River-Madcap Creek","RU-E","RU22",NA
"4ABDA003.63","ATRND","STREAM","WCRO","Blue Ridge","STA #7 OFF RT.757 (BEDFORD COUNTY)",2,"TR","AMBNT",37.225,-79.75055556,3,"South Atlantic-Gulf","Roanoke River Basin","UPPER ROANOKE",3010101,"Upper Roanoke","Beaverdam Creek",30101010702,"Beaverdam Creek","RU-G","RU17","2055100"
"4ABDB000.75","AWTSHD","STREAM","SCRO","Blue Ridge","Bradley Cr @ rt 628",2,"AW","AMBNT",36.87777778,-79.05416667,3,"South Atlantic-Gulf","Roanoke River Basin","BANISTER",3010105,"Banister","Bye Creek-Banister River",30101050207,"Banister River-Bye Creek","RD-N","RD62",NA
"4ABDB004.35","APROB","STREAM","SCRO","Blue Ridge","Bradley Ck north of 621",2,"FP","AMBNT",36.90558333,-79.04608333,3,"South Atlantic-Gulf","Roanoke River Basin","BANISTER",3010105,"Banister","Bye Creek-Banister River",30101050207,"Banister River-Bye Creek","RD-N","RD62",NA
"4ABEE000.80","AWTSHD","STREAM","SCRO","Blue Ridge","RT. 727 BRIDGE",2,"AW","AMBNT",36.54361111,-78.62444444,3,"South Atlantic-Gulf","Roanoke River Basin","MIDDLE ROANOKE",3010102,"Middle Roanoke","Beech Creek-Johnson Creek",30101020803,"Johnson Creek-John H Kerr Reservoir","RL-A","RL01",NA
"4ABHB004.40","AWTSHD","STREAM","SCRO","Blue Ridge","S of Rt. 58, Rudd Branch Confluence",2,"RL","AMBNT",36.64922222,-78.44127778,3,"South Atlantic-Gulf","Roanoke River Basin","MIDDLE ROANOKE",3010102,"Middle Roanoke","Butcher Creek",30101020904,"Butcher Creek/John H Kerr Reservoir","RL-B","RL07",NA
"4ABIR004.22","SSTUDY","STREAM","SCRO","Blue Ridge","Birch Cr. @ rt 685 bridge",2,"RB","AMBNT",36.69222222,-79.10666667,3,"South Atlantic-Gulf","Roanoke River Basin","LOWER DAN",3010104,"Lower Dan","Birch Creek",30101040305,"Birch Creek","RD-K","RD47",NA
"4ABIR011.55","AWTSHD","STREAM","SCRO","Blue Ridge","Birch Cr. @ rte 729-Kentuck rd",2,"AW","AMBNT",36.70305556,-79.21777778,3,"South Atlantic-Gulf","Roanoke River Basin","LOWER DAN",3010104,"Lower Dan","Birch Creek",30101040305,"Birch Creek","RD-K","RD47",NA
"4ABKN000.52","AWTSHD","STREAM","SCRO","Blue Ridge","Bearskin Cr. @ rt 703 Tight Sqz. Rd",2,"RB","AMBNT",36.77694444,-79.45916667,3,"South Atlantic-Gulf","Roanoke River Basin","BANISTER",3010105,"Banister","Bearskin Creek",30101050102,"Bearskin Creek","RD-M","RD53",NA
"4ABKN008.08","APROB","STREAM","SCRO","Blue Ridge","Route 800 (Anderson Road)",2,"PA","AMBNT",36.86378056,-79.49775,3,"South Atlantic-Gulf","Roanoke River Basin","BANISTER",3010105,"Banister","Bearskin Creek",30101050102,"Bearskin Creek","RD-M","RD53",NA
"4ABKN008.26","APROB","STREAM","SCRO","Blue Ridge","Bearskin Ck upstream of Rte 800",2,"FP","AMBNT",36.86619444,-79.49858333,3,"South Atlantic-Gulf","Roanoke River Basin","BANISTER",3010105,"Banister","Bearskin Creek",30101050102,"Bearskin Creek","RD-M","RD53",NA
"4ABLE001.21","SSTUDY","STREAM","SCRO","Blue Ridge","Berles Cr. @ Rt. 631, DSS Vaughan Farm",2,"RB","AMBNT",36.84388889,-78.62055556,3,"South Atlantic-Gulf","Roanoke River Basin","MIDDLE ROANOKE",3010102,"Middle Roanoke","Sandy Creek-Roanoke River",30101020601,"Roanoke River-John H Kerr Reservoir-Buffalo Creek","RU-U","RU87",NA
"4ABLG000.24","AWTSHD","STREAM","WCRO","Blue Ridge","Rt. 631 Bridge",2,"PA","AMBNT",37.13872222,-80.16611111,3,"South Atlantic-Gulf","Roanoke River Basin","UPPER ROANOKE",3010101,"Upper Roanoke","Bottom Creek",30101010102,"Bottom Creek","RU-A","RU02",NA
"4ABLG001.95","APROB","STREAM","WCRO","Blue Ridge","Along Rt. 631",2,"FP","AMBNT",37.1527,-80.176,3,"South Atlantic-Gulf","Roanoke River Basin","UPPER ROANOKE",3010101,"Upper Roanoke","Bottom Creek",30101010102,"Bottom Creek","RU-A","RU02","VARS11-168"
"4ABLU002.02","AWTSHD","STREAM","SCRO","Blue Ridge","Big Bluewing Cr @ Rt. 602",2,"AW","AMBNT",36.60361111,-78.82555555,3,"South Atlantic-Gulf","Roanoke River Basin","LOWER DAN",3010104,"Lower Dan","Big Bluewing Creek",30101040607,"Big Bluewing Creek","RD-R","RD73",NA
"4ABMA002.00","ATRND","STREAM","SCRO","Blue Ridge","RT. 58 BRIDGE",2,"TR","AMBNT",36.64027778,-78.64861111,3,"South Atlantic-Gulf","Roanoke River Basin","MIDDLE ROANOKE",3010104,"Lower Dan","Buffalo Creek-Dan River",30101040704,"Dan River/John H Kerr Reservoir-Buffalo Creek","RD-S","RD77",NA
"4ABMA005.64","BIOMON","STREAM","SCRO","Blue Ridge","Buffalo Ck upstrm of Hicks Sp Br Rte 735",2,"RB","AMBNT",36.60051944,-78.66453889,3,"South Atlantic-Gulf","Roanoke River Basin","MIDDLE ROANOKE",3010104,"Lower Dan","Buffalo Creek-Dan River",30101040704,"Dan River/John H Kerr Reservoir-Buffalo Creek","RD-S","RD77",NA
"4ABMA006.65","BIOMON","STREAM","SCRO","Blue Ridge","Buffalo Ck @ Overby Rd",2,"RB","AMBNT",36.58769722,-78.66495833,3,"South Atlantic-Gulf","Roanoke River Basin","MIDDLE ROANOKE",3010104,"Lower Dan","Buffalo Creek-Dan River",30101040704,"Dan River/John H Kerr Reservoir-Buffalo Creek","RD-S","RD77",NA
"4ABMN000.65","BIOMON","STREAM","SCRO","Blue Ridge","Big Mountain Br @ 606 Rice School Rd",2,"RB","AMBNT",36.57458889,-78.73965833,3,"South Atlantic-Gulf","Roanoke River Basin","LOWER DAN",3010104,"Lower Dan","Aarons Creek-John H Kerr Reservoir",30101040702,"Aarons Creek-John H Kerr Reservoir","RD-S","RD75",NA
"4ABNN001.85","SSTUDY","STREAM","SCRO","Blue Ridge","Buffalo Creek @Rt. 608",2,"RB","AMBNT",36.80083333,-78.64305556,3,"South Atlantic-Gulf","Roanoke River Basin","MIDDLE ROANOKE",3010102,"Middle Roanoke","Sandy Creek-Roanoke River",30101020601,"Roanoke River-John H Kerr Reservoir-Buffalo Creek","RU-U","RU87",NA
"4ABNN002.17","APROB","STREAM","SCRO","Blue Ridge","Buffalo Creek upstream of 608",2,"FP","AMBNT",36.79988889,-78.63827778,3,"South Atlantic-Gulf","Roanoke River Basin","MIDDLE ROANOKE",3010102,"Middle Roanoke","Sandy Creek-Roanoke River",30101020601,"Roanoke River-John H Kerr Reservoir-Buffalo Creek","RU-U","RU87",NA
"4ABNR000.40","ATRND","STREAM","WCRO","Blue Ridge","ROUTE 740 BRIDGE SW OF RETREAT (FRANKLIN",2,"TR","AMBNT",37.03027778,-80.02666667,3,"South Atlantic-Gulf","Roanoke River Basin","UPPER ROANOKE",3010101,"Upper Roanoke","North Fork Blackwater River",30101010501,"North Fork Blackwater River","RU-E","RU20",NA
"4ABNR001.53","BIOMON","STREAM","WCRO","Blue Ridge","Rt. 738 Br. (Below Barnhardt Dairy)",35158,"RB","AMBNT",37.025,-80.0267,3,"South Atlantic-Gulf","Roanoke River Basin","UPPER ROANOKE",3010101,"Upper Roanoke","North Fork Blackwater River",30101010501,"North Fork Blackwater River","RU-E","RU20",NA
"4ABOE004.86","TMDL","STREAM","WCRO","Blue Ridge","Saunders Road Bridge (Rt. 616)",2,"TM","AMBNT",37.30955555,-79.71688889,3,"South Atlantic-Gulf","Roanoke River Basin","UPPER ROANOKE",3010101,"Upper Roanoke","Bore Auger Creek",30101011102,"Bore Auger Creek","RU-K","RU40",NA
"4ABOE005.27","APROB","STREAM","WCRO","Blue Ridge","Along Rt. 616 (Sanders Rd)",2,"FP","AMBNT",37.3111,-79.7215,3,"South Atlantic-Gulf","Roanoke River Basin","UPPER ROANOKE",3010101,"Upper Roanoke","Bore Auger Creek",30101011102,"Bore Auger Creek","RU-K","RU40","VARS11-091"
"4ABOR000.62","ATRND","STREAM","SCRO","Blue Ridge","ROUTE 712 BRIDGE",2,"TR","AMBNT",37.13888889,-79.24416667,3,"South Atlantic-Gulf","Roanoke River Basin","UPPER ROANOKE",3010101,"Upper Roanoke","Troublesome Creek-Big Otter River",30101011505,"Big Otter River-Troublesome Creek","RU-O","RU59","2061500"
"4ABOR012.18","AWTSHD","STREAM","SCRO","Blue Ridge","STA #8 RT.644 BRIDGE (BEDFORD COUNTY)",2,"AW","AMBNT",37.20805555,-79.30277778,3,"South Atlantic-Gulf","Roanoke River Basin","UPPER ROANOKE",3010101,"Upper Roanoke","Johnson Creek-Big Otter River",30101011503,"Big Otter River-Johnson Creek","RU-O","RU57",NA
"4ABOR016.26","AWTSHD","STREAM","WCRO","Blue Ridge","RT. 24 BRIDGE",2,"TM","AMBNT",37.24555556,-79.34944445,3,"South Atlantic-Gulf","Roanoke River Basin","UPPER ROANOKE",3010101,"Upper Roanoke","Orrix Creek-Big Otter River",30101011501,"Big Otter River-Orrix Creek","RU-O","RU55",NA
"4ABOR024.46","AWTSHD","STREAM","WCRO","Blue Ridge","Bridge 460 near intersection 460&706",2,"AW","AMBNT",37.30866667,-79.39388889,3,"South Atlantic-Gulf","Roanoke River Basin","UPPER ROANOKE",3010101,"Upper Roanoke","Roaring Run-Big Otter River",30101011404,"Big Otter River-Roaring Run","RU-N","RU52",NA
"4ABOR033.22","APROB","STREAM","WCRO","Blue Ridge","Downstream of Rt. 644 Bridge",2,"FP","AMBNT",37.38507778,-79.46313056,3,"South Atlantic-Gulf","Roanoke River Basin","UPPER ROANOKE",3010101,"Upper Roanoke","Stony Creek-Big Otter River",30101011401,"Big Otter River-Stony Creek","RU-N","RU49","VAEQ99-341"
"4ABPC003.14","AWTSHD","STREAM","SCRO","Blue Ridge","Shiney Rock Road (Rt. 723)",2,"TM","AMBNT",36.59388889,-78.57944444,3,"South Atlantic-Gulf","Roanoke River Basin","MIDDLE ROANOKE",3010102,"Middle Roanoke","Beaver Pond Creek North-Grassy Creek",30101020805,"Grassy Creek/John H Kerr Reservoir-Beaver Pond Creek North","RL-A","RL03",NA
"4ABSA000.62","ATRND","RESERV","WCRO","Blue Ridge","CONFLUENCE WITH LITTLE BULL RUN",2,"RL","AMBNT",37.02777778,-79.63333333,3,"South Atlantic-Gulf","Roanoke River Basin","UPPER ROANOKE",3010101,"Upper Roanoke","Bull Run-Smith Mountain Lake",30101010603,"Blackwater River/Smith Mountain Lake-Bull Run","RU-F","RU26",NA
"4ABSF001.15","ATRND","STREAM","WCRO","Blue Ridge","RT. 641 BRIDGE E. OF CALLAWAY (FRANKLIN",2,"TR","AMBNT",37.01305556,-80.03444445,3,"South Atlantic-Gulf","Roanoke River Basin","UPPER ROANOKE",3010101,"Upper Roanoke","South Fork Blackwater River",30101010502,"South Fork Blackwater River","RU-E","RU21",NA
"4ABST001.13","AWTSHD","STREAM","SCRO","Blue Ridge","STA 324 BL - RT. 15 BRIDGE KERR RESERVOI",2,"RL","AMBNT",36.66416667,-78.57194444,3,"South Atlantic-Gulf","Roanoke River Basin","MIDDLE ROANOKE",3010102,"Middle Roanoke","Goodell Creek-Bluestone Creek",30101020703,"Bluestone Creek-Goodell Creek","RU-V","RU93",NA
"4ABST009.45","APROB","STREAM","SCRO","Blue Ridge","Bluestone Creek just upstream of Rte 699",2,"FP","AMBNT",36.73188889,-78.617,3,"South Atlantic-Gulf","Roanoke River Basin","MIDDLE ROANOKE",3010102,"Middle Roanoke","Otter Creek-Bluestone Creek",30101020701,"Bluestone Creek-Otter Creek","RU-V","RU91",NA
"4ABST013.64","BIOMON","STREAM","SCRO","Blue Ridge","Bluestone Ck @ Rte. 605",2,"RB","AMBNT",36.77497222,-78.58883333,3,"South Atlantic-Gulf","Roanoke River Basin","MIDDLE ROANOKE",3010102,"Middle Roanoke","Otter Creek-Bluestone Creek",30101020701,"Bluestone Creek-Otter Creek","RU-V","RU91",NA
"4ABST017.09","AWTSHD","STREAM","SCRO","Blue Ridge","Bluestone Creek @ Rt 92(E of Barnes Jct)",2,"PA","AMBNT",36.81083333,-78.57722222,3,"South Atlantic-Gulf","Roanoke River Basin","MIDDLE ROANOKE",3010102,"Middle Roanoke","Otter Creek-Bluestone Creek",30101020701,"Bluestone Creek-Otter Creek","RU-V","RU91",NA
"4ABTC000.60","AWTSHD","STREAM","SCRO","Blue Ridge","Big Toby Creek @ Rt. 691",2,"AW","AMBNT",36.64777778,-79.09916667,3,"South Atlantic-Gulf","Roanoke River Basin","LOWER DAN",3010104,"Lower Dan","Big Toby Creek-Dan River",30101040304,"Dan River-Big Toby Creek","RD-K","RD46",NA
"4ABTM000.04","BIOMON","STREAM","WCRO","Blue Ridge","Rt. 637 Bridge",2,"RB","AMBNT",37.1017,-80.2194,3,"South Atlantic-Gulf","Roanoke River Basin","UPPER ROANOKE",3010101,"Upper Roanoke","Bottom Creek",30101010102,"Bottom Creek","RU-A","RU02",NA
"4ABTM004.48","BIOMON","STREAM","WCRO","Blue Ridge","Upstream of RT 669 bridge",2,"RB","AMBNT",37.1315,-80.18030556,3,"South Atlantic-Gulf","Roanoke River Basin","UPPER ROANOKE",3010101,"Upper Roanoke","Bottom Creek",30101010102,"Bottom Creek","RU-A","RU02",NA
"4ABUB000.06","AWTSHD","STREAM","SCRO","Blue Ridge","Big Cub Creek @ Rt. 701",2,"RB","AMBNT",37.20333333,-78.73472222,3,"South Atlantic-Gulf","Roanoke River Basin","MIDDLE ROANOKE",3010102,"Middle Roanoke","Big Cub Creek",30101020301,"Big Cub Creek","RU-R","RU76",NA
"4ABWA002.00","AWTSHD","STREAM","WCRO","Blue Ridge","Below Rt. 24 Bridge",2,"TM","AMBNT",37.25201667,-79.32430833,3,"South Atlantic-Gulf","Roanoke River Basin","UPPER ROANOKE",3010101,"Upper Roanoke","Buffalo Creek",30101011502,"Buffalo Creek","RU-O","RU56",NA
"4ABWA008.53","APROB","STREAM","WCRO","Blue Ridge","Along Rt. 623 near New London",2,"FP","AMBNT",37.28941111,-79.27303889,3,"South Atlantic-Gulf","Roanoke River Basin","UPPER ROANOKE",3010101,"Upper Roanoke","Buffalo Creek",30101011502,"Buffalo Creek","RU-O","RU56","VAEQ99-314"
"4ABWC001.00","AWTSHD","STREAM","SCRO","Blue Ridge","RTE 600",2,"AW","AMBNT",36.88555556,-78.71388889,3,"South Atlantic-Gulf","Roanoke River Basin","MIDDLE ROANOKE",3010102,"Middle Roanoke","Hunting Creek-Roanoke River",30101020405,"Roanoke River-Hunting Creek","RU-S","RU80",NA
"4ABWR002.50","ATRND","RESERV","WCRO","Blue Ridge","SMITH MTN LK #7A-TOP #7B-MIDDLE #7C-BOTT",2,"RL","AMBNT",37.03888889,-79.61527778,3,"South Atlantic-Gulf","Roanoke River Basin","UPPER ROANOKE",3010101,"Upper Roanoke","Bull Run-Smith Mountain Lake",30101010603,"Blackwater River/Smith Mountain Lake-Bull Run","RU-F","RU26",NA
"4ABWR010.55","ATRND","RESERV","WCRO","Blue Ridge","SMITH MTN LAKE-STA #22,BUOY 23 (FRANKLIN",2,"RL","AMBNT",37.04027778,-79.70277778,3,"South Atlantic-Gulf","Roanoke River Basin","UPPER ROANOKE",3010101,"Upper Roanoke","Standiford Creek-Smith Mountain Lake",30101010601,"Blackwater River-Smith Mountain Lake-Standiford Creek","RU-F","RU24",NA
"4ABWR017.42","ATRND","RESERV","WCRO","Blue Ridge","SMITH MTN LAKE-STA #21,BUOY 50 (FRANKLIN",2,"RL","AMBNT",37.06305556,-79.74444444,3,"South Atlantic-Gulf","Roanoke River Basin","UPPER ROANOKE",3010101,"Upper Roanoke","Standiford Creek-Smith Mountain Lake",30101010601,"Blackwater River-Smith Mountain Lake-Standiford Creek","RU-F","RU24",NA
"4ABWR019.75","ATRND","STREAM","WCRO","Blue Ridge","SMITH MTN.LAKE,BROOKS MILL BR.RT.834 FRA",2,"TR","AMBNT",37.05611111,-79.75944444,3,"South Atlantic-Gulf","Roanoke River Basin","UPPER ROANOKE",3010101,"Upper Roanoke","Standiford Creek-Smith Mountain Lake",30101010601,"Blackwater River-Smith Mountain Lake-Standiford Creek","RU-F","RU24","2056900"
"4ABWR029.51","APROB","STREAM","WCRO","Blue Ridge","Downstream of Rt. 122 Bridge",35158,"RB","AMBNT",37.04921667,-79.8299,3,"South Atlantic-Gulf","Roanoke River Basin","UPPER ROANOKE",3010101,"Upper Roanoke","Madcap Creek-Blackwater River",30101010503,"Blackwater River-Madcap Creek","RU-E","RU22","VAEQ99-451"
"4ABWR045.80","ATRND","STREAM","WCRO","Blue Ridge","RT. 812 BRIDGE SE OF GOGGINSVILLE (FRANK",2,"TR","AMBNT",37.03444444,-79.90972222,3,"South Atlantic-Gulf","Roanoke River Basin","UPPER ROANOKE",3010101,"Upper Roanoke","Madcap Creek-Blackwater River",30101010503,"Blackwater River-Madcap Creek","RU-E","RU22",NA
"4ABWR054.81","ATRND","STREAM","WCRO","Blue Ridge","RT. 734 BRIDGE (FRANKLIN CO.)",2,"TR","AMBNT",37.01833333,-79.96222222,3,"South Atlantic-Gulf","Roanoke River Basin","UPPER ROANOKE",3010101,"Upper Roanoke","Madcap Creek-Blackwater River",30101010503,"Blackwater River-Madcap Creek","RU-E","RU22",NA
"4ABWR061.20","ATRND","STREAM","WCRO","Blue Ridge","RT. 641 BR. E. OF CALLAWAY (FRANKLIN CO)",2,"TR","AMBNT",37.02472222,-80.02333333,3,"South Atlantic-Gulf","Roanoke River Basin","UPPER ROANOKE",3010101,"Upper Roanoke","Madcap Creek-Blackwater River",30101010503,"Blackwater River-Madcap Creek","RU-E","RU22",NA
"4ABYE000.85","AWTSHD","STREAM","SCRO","Blue Ridge","Bye Creek @ rt 753",2,"AW","AMBNT",36.8525,-79.0575,3,"South Atlantic-Gulf","Roanoke River Basin","BANISTER",3010105,"Banister","Bye Creek-Banister River",30101050207,"Banister River-Bye Creek","RD-N","RD62",NA
"4ABYR002.13","SSTUDY","STREAM","SCRO","Blue Ridge","Byrds Branch @ Rt. 689",2,"PA","AMBNT",36.62305556,-79.14055555,3,"South Atlantic-Gulf","Roanoke River Basin","LOWER DAN",3010104,"Lower Dan","Big Toby Creek-Dan River",30101040304,"Dan River-Big Toby Creek","RD-K","RD46",NA
